address,LATITUDE,LONGITUDE
148 WOODLANDS ST 13,1.43576275,103.77403
426 CLEMENTI AVE 3,1.311580406,103.7642113
85 CIRCUIT RD,1.322652411,103.8857553
467 TAMPINES ST 44,1.359968527,103.9546659
367 CORPORATION DR,1.337697823,103.7191457
159 YUNG PING RD,1.329285993,103.7223857
518 CHOA CHU KANG ST 51,1.390768865,103.742554
918 JURONG WEST ST 91,1.340579375,103.6871707
682A EDGEDALE PLAINS,1.403547749,103.9162913
416 ANG MO KIO AVE 10,1.364541709,103.8551037
415 SEMBAWANG DR,1.451626317,103.818573
204 TOA PAYOH NTH,1.34148414,103.8490677
175 BISHAN ST 13,1.348960622,103.853736
333B YISHUN ST 31,1.431957833,103.8453791
19 CHAI CHEE RD,1.32723389,103.9222175
422 CANBERRA RD,1.453436687,103.8184495
472 CHOA CHU KANG AVE 3,1.379085441,103.7375424
2 LOR 7 TOA PAYOH,1.338607526,103.8535156
688C CHOA CHU KANG CRES,1.403187013,103.7509933
427 HOUGANG AVE 6,1.374470806,103.8930911
186 BOON LAY AVE,1.345727283,103.7110274
100 COMMONWEALTH CRES,1.307705276,103.8012725
304 WOODLANDS ST 31,1.42989256,103.7738539
44 OWEN RD,1.31551163,103.8503779
58 STRATHMORE AVE,1.29308496,103.8107889
302C PUNGGOL PL,1.404720474,103.9049679
246 TAMPINES ST 21,1.353225498,103.9472322
119D RIVERVALE DR,1.38530593,103.9036099
204 SERANGOON CTRL,1.352438279,103.8732981
935 YISHUN CTRL 1,1.425180059,103.8365963
230 PENDING RD,1.376166612,103.7722071
704 BEDOK RESERVOIR RD,1.336354906,103.9202036
710 ANG MO KIO AVE 8,1.371045831,103.8481868
768 YISHUN AVE 3,1.424361513,103.8339403
334C ANCHORVALE CRES,1.397422227,103.8897039
449 PASIR RIS DR 6,1.370842121,103.9583507
208A CLEMENTI AVE 6,1.321923429,103.7623848
423 FAJAR RD,1.385396994,103.7692111
652A JURONG WEST ST 61,1.336679135,103.6983332
311 JURONG EAST ST 32,1.347666576,103.7325787
329 TAMPINES ST 32,1.353355521,103.9587286
418 CHOA CHU KANG AVE 4,1.382373008,103.7413523
491E TAMPINES ST 45,1.362498954,103.9552513
144 JLN BT MERAH,1.277305432,103.8299556
40 BEO CRES,1.289056347,103.8275021
542 HOUGANG AVE 8,1.376951718,103.8917486
210C COMPASSVALE LANE,1.384241559,103.8995422
678B JURONG WEST ST 64,1.345128195,103.7038974
239 LOR 1 TOA PAYOH,1.340508942,103.8510407
118 TECK WHYE LANE,1.379871028,103.7506473
669B JURONG WEST ST 64,1.342849657,103.7028043
645 JLN TENAGA,1.331671179,103.9065379
249 YISHUN AVE 9,1.435240687,103.8418524
330 SEMBAWANG CL,1.446805071,103.8178116
608 HOUGANG AVE 4,1.370844205,103.8854319
33 TELOK BLANGAH WAY,1.274361964,103.822184
3 UPP ALJUNIED LANE,1.333992975,103.8798927
109 JURONG EAST ST 13,1.338361705,103.7359112
293A COMPASSVALE CRES,1.396533039,103.8958676
14B LOR 7 TOA PAYOH,1.335738874,103.8584084
547D SEGAR RD,1.388901126,103.7690032
620 BT PANJANG RING RD,1.385855583,103.7617375
403B FERNVALE LANE,1.388791435,103.8729798
165A PUNGGOL CTRL,1.394998966,103.9147543
7 KIM TIAN PL,1.283485112,103.8270438
640 BEDOK RESERVOIR RD,1.332101322,103.9049532
34 CIRCUIT RD,1.329043618,103.8874381
411 PANDAN GDNS,1.319022393,103.7466919
122 HOUGANG AVE 1,1.353744081,103.8861593
332 CLEMENTI AVE 2,1.314740295,103.7674876
539 JURONG WEST AVE 1,1.350875715,103.7163533
404 CHOA CHU KANG AVE 3,1.380129649,103.7388888
908 TAMPINES AVE 4,1.350540092,103.9387161
665B JURONG WEST ST 64,1.339798317,103.7029436
624 JURONG WEST ST 61,1.340784384,103.6978761
45 KIM CHENG ST,1.284226486,103.8316063
12 REDHILL CL,1.2863977,103.8165533
858 JURONG WEST ST 81,1.34828949,103.6962057
157 BEDOK STH AVE 3,1.318736079,103.9457156
258B COMPASSVALE RD,1.392902775,103.8974046
316C ANCHORVALE LINK,1.393161626,103.888371
296 YISHUN ST 20,1.435392246,103.835501
256A SUMANG WALK,1.406091605,103.8957066
107 YISHUN RING RD,1.432218081,103.8275202
236 YISHUN RING RD,1.43416808,103.8389989
523D TAMPINES CTRL 7,1.35935847,103.9389088
37 LOR 5 TOA PAYOH,1.334526113,103.8559154
510B WELLINGTON CIRCLE,1.453608955,103.8208836
832 TAMPINES ST 82,1.350101715,103.9353978
149 BEDOK RESERVOIR RD,1.335769298,103.9127796
119C RIVERVALE DR,1.384963739,103.9032546
63 COMMONWEALTH DR,1.298820888,103.7970912
247 COMPASSVALE RD,1.392092298,103.8992492
572A WOODLANDS AVE 1,1.430866875,103.7895547
241 BISHAN ST 22,1.360829685,103.8454734
115B CANBERRA WALK,1.446311229,103.8294169
716 JURONG WEST ST 71,1.344097604,103.6967239
21 QUEEN'S CL,1.29327775,103.799918
268 PASIR RIS ST 21,1.365289934,103.9630144
112 CLEMENTI ST 13,1.323301238,103.7698535
29A CHAI CHEE AVE,1.324886322,103.9241321
223A JURONG EAST ST 21,1.341372153,103.7367542
41 HOLLAND DR,1.307620049,103.7934635
115 BT BATOK WEST AVE 6,1.349183197,103.7465668
129 BISHAN ST 12,1.345692267,103.8503993
99 WHAMPOA DR,1.320812804,103.8538038
612 CLEMENTI WEST ST 1,1.303442199,103.7686334
134 YISHUN ST 11,1.432376505,103.8314109
217 BOON LAY AVE,1.349486238,103.7110184
810B CHOA CHU KANG AVE 7,1.374217649,103.7454677
166A TECK WHYE CRES,1.383293601,103.7530259
886A TAMPINES ST 83,1.351890453,103.9322682
158 SIMEI RD,1.344253486,103.9596028
450A SENGKANG WEST WAY,1.394468148,103.8735067
407B FERNVALE RD,1.388997392,103.875148
89 DAWSON RD,1.295463169,103.8117852
958 HOUGANG ST 91,1.376635679,103.8797875
203 BEDOK NTH ST 1,1.325744613,103.9291946
226 YISHUN ST 21,1.434425642,103.8361659
742 PASIR RIS ST 71,1.376955021,103.9359424
441 JURONG WEST AVE 1,1.351327315,103.7203831
471 PASIR RIS DR 6,1.374156245,103.9578177
312A CLEMENTI AVE 4,1.319088944,103.7644412
112 TECK WHYE LANE,1.377485451,103.7519213
461 SEGAR RD,1.386974345,103.7712801
817A KEAT HONG LINK,1.376607572,103.748546
601 HOUGANG AVE 4,1.370678921,103.8871366
431 BT PANJANG RING RD,1.386025012,103.7708477
570 CHOA CHU KANG ST 52,1.394201265,103.7444652
747 JURONG WEST ST 73,1.347615757,103.697321
160 SIMEI RD,1.345170371,103.9596759
30 BENDEMEER RD,1.319093438,103.8639053
209 ANG MO KIO AVE 3,1.368970796,103.8432845
350 CLEMENTI AVE 2,1.315620153,103.7701917
442 ANG MO KIO AVE 10,1.365653269,103.8552322
473 CHOA CHU KANG AVE 3,1.379618211,103.7381155
113 TAO CHING RD,1.333184498,103.7243543
768 BEDOK RESERVOIR VIEW,1.335664343,103.9373217
132 CLARENCE LANE,1.292255234,103.8148798
326 BT BATOK ST 33,1.362570999,103.7481555
5 SELETAR WEST FARMWAY 6,1.396243456,103.8704474
614 BEDOK RESERVOIR RD,1.33240904,103.9167889
893D WOODLANDS DR 50,1.436318452,103.789948
228 CHOA CHU KANG CTRL,1.380947507,103.7464958
532 PASIR RIS DR 1,1.371277214,103.9507466
312 UBI AVE 1,1.32967348,103.9037843
27 GHIM MOH LINK,1.308371263,103.7851335
166 HOUGANG AVE 1,1.351175669,103.8881953
297 CHOA CHU KANG AVE 2,1.377078974,103.741912
657 CHOA CHU KANG CRES,1.400445995,103.7498724
960 HOUGANG AVE 9,1.377102517,103.8784827
36 DOVER RD,1.299945581,103.7827242
154 BISHAN ST 13,1.346625075,103.8550332
124 YISHUN ST 11,1.4345903,103.8311393
306C PUNGGOL PL,1.406403852,103.9059582
602 WOODLANDS DR 42,1.438217416,103.7963915
305 BT BATOK ST 31,1.357861008,103.7479345
18 TIONG BAHRU RD,1.285727781,103.8325924
201B COMPASSVALE DR,1.388313116,103.8939236
106C PUNGGOL FIELD,1.397366642,103.9075622
725 ANG MO KIO AVE 6,1.372790817,103.8469112
666A JURONG WEST ST 65,1.339767995,103.7013798
109 YISHUN RING RD,1.432799057,103.8286462
391 YISHUN AVE 6,1.429467692,103.8491714
929 JURONG WEST ST 92,1.34129441,103.6892708
158 MEI LING ST,1.292740384,103.8028067
354D ADMIRALTY DR,1.450783882,103.8186449
440 ANG MO KIO AVE 10,1.366427898,103.8543115
146 MEI LING ST,1.293914777,103.8044543
105 CLEMENTI ST 12,1.32271179,103.7698881
206B COMPASSVALE LANE,1.387438071,103.8969321
553 JURONG WEST ST 42,1.353131925,103.7189436
367 TAMPINES ST 34,1.358619461,103.9607886
273B BISHAN ST 24,1.356072993,103.8434702
821 TAMPINES ST 81,1.348419767,103.9346491
623 HOUGANG AVE 8,1.370513873,103.8823235
323 TAMPINES ST 33,1.351590043,103.9583953
912 JURONG WEST ST 91,1.341358007,103.6872696
367 WOODLANDS AVE 5,1.433504242,103.7864961
556 ANG MO KIO AVE 10,1.372032363,103.8576254
160 WOODLANDS ST 13,1.433333284,103.7749216
780E WOODLANDS CRES,1.44800009,103.8017004
948 JURONG WEST ST 91,1.344408267,103.6909587
107 POTONG PASIR AVE 1,1.334709369,103.8684132
154 BT BATOK ST 11,1.347735583,103.743984
115 POTONG PASIR AVE 1,1.337269998,103.8628066
403 ADMIRALTY LINK,1.45391726,103.8161301
451 PASIR RIS DR 6,1.371469056,103.958128
519 SERANGOON NTH AVE 4,1.371992234,103.8745903
171 BT BATOK WEST AVE 8,1.346100212,103.7402296
611 CHOA CHU KANG ST 62,1.399742048,103.7438618
187 PUNGGOL CTRL,1.398752034,103.9108807
608 YISHUN ST 61,1.420777466,103.8352195
196B BOON LAY DR,1.34278861,103.7143014
628 JURONG WEST ST 65,1.342204167,103.6994476
30 MARINE CRES,1.304222795,103.911164
325 BT BATOK ST 33,1.362601611,103.7474249
343 WOODLANDS AVE 1,1.431745661,103.7806583
204 CHOA CHU KANG AVE 1,1.380791257,103.7492267
83 STRATHMORE AVE,1.294642864,103.808264
152 YISHUN ST 11,1.431039775,103.834755
218A BOON LAY AVE,1.349968587,103.7105396
518 WEST COAST RD,1.308217599,103.7589432
342B YISHUN RING RD,1.430245961,103.8448383
439A SENGKANG WEST AVE,1.391875231,103.8778554
238 HOUGANG AVE 1,1.357144094,103.8889701
637 BEDOK RESERVOIR RD,1.331066906,103.9039326
4 BOON KENG RD,1.315698964,103.8597852
157 SIMEI RD,1.344621596,103.9594175
1 MARINE TER,1.304829022,103.918615
427 BEDOK NTH RD,1.329108884,103.9277342
5 CHANGI VILLAGE RD,1.3888534,103.986846
6 FARRER RD,1.317319712,103.8080572
517C JURONG WEST ST 52,1.344936308,103.7200246
259A COMPASSVALE RD,1.393905906,103.8967321
141 MARSILING RD,1.4373687,103.7770722
182 STIRLING RD,1.295382633,103.8049624
878 TAMPINES AVE 8,1.352211871,103.9313823
240 LOR 1 TOA PAYOH,1.340876446,103.85083
413 BEDOK NTH AVE 2,1.330301637,103.9310862
838 WOODLANDS ST 82,1.441899984,103.7912336
550 SERANGOON NTH AVE 3,1.372709913,103.8706048
728 WOODLANDS CIRCLE,1.442880202,103.7988878
168 STIRLING RD,1.290020507,103.803188
185 JELEBU RD,1.379355256,103.7622965
651A JURONG WEST ST 61,1.33707182,103.6979383
807 TAMPINES AVE 4,1.345866245,103.9360934
2 BEDOK STH AVE 1,1.321301188,103.9332996
60 NEW UPP CHANGI RD,1.322478077,103.9412546
138 POTONG PASIR AVE 3,1.33356221,103.8654586
118 CLEMENTI ST 13,1.324917987,103.7718911
346 YISHUN AVE 11,1.428459351,103.8435688
26 TECK WHYE LANE,1.377621124,103.75574
357 YUNG AN RD,1.336828968,103.7211176
321B ANCHORVALE DR,1.390561631,103.8922662
717B WOODLANDS DR 70,1.441370233,103.7985427
47 BENDEMEER RD,1.323397413,103.866812
7 TG PAGAR PLAZA,1.277120122,103.8431177
692 HOUGANG ST 61,1.376647194,103.8867716
722 PASIR RIS ST 72,1.380963752,103.9368903
14A LOR 7 TOA PAYOH,1.336268208,103.8583152
65 NEW UPP CHANGI RD,1.324678528,103.9397703
334 HOUGANG AVE 5,1.368862166,103.8979544
231 HOUGANG ST 21,1.358130597,103.8879
229 ANG MO KIO AVE 3,1.369076459,103.8382287
40 TELOK BLANGAH RISE,1.272099266,103.8232451
230 TAMPINES ST 24,1.355932426,103.9527466
265C PUNGGOL WAY,1.40499729,103.8985186
322 SERANGOON AVE 3,1.351755071,103.8686624
274B COMPASSVALE BOW,1.381922771,103.8908757
219 BISHAN ST 23,1.357397279,103.8494302
307 JURONG EAST ST 32,1.346521518,103.7348431
112 SERANGOON NTH AVE 1,1.369199969,103.8715888
53 TEBAN GDNS RD,1.321377097,103.7375776
223 YISHUN ST 21,1.434367273,103.8356027
252 KIM KEAT LINK,1.33121483,103.8572418
892 TAMPINES AVE 8,1.349012829,103.9292428
127 MARSILING RISE,1.438119418,103.7794643
663A PUNGGOL DR,1.400243476,103.91708
272 TOH GUAN RD,1.342104131,103.7454087
351B CANBERRA RD,1.450860772,103.8199728
832 HOUGANG CTRL,1.370634202,103.889799
580 HOUGANG AVE 4,1.378952246,103.886777
543 JURONG WEST ST 42,1.351863252,103.7157986
421 WOODLANDS ST 41,1.427774302,103.7746217
308B PUNGGOL WALK,1.407802653,103.8996094
670 JLN DAMAI,1.332518718,103.9082833
547B SEGAR RD,1.388437745,103.7692526
607 SENJA RD,1.382519651,103.7615163
523A TAMPINES CTRL 7,1.359370987,103.9383786
17A TELOK BLANGAH CRES,1.277382607,103.821604
226 PASIR RIS ST 21,1.371012121,103.9617259
304 SERANGOON AVE 2,1.353813453,103.867773
975 JURONG WEST ST 93,1.340241479,103.6935496
528 WOODLANDS DR 14,1.431489272,103.7925584
547 WOODLANDS DR 16,1.430162312,103.7929876
502 JURONG WEST AVE 1,1.350437758,103.7181138
670A EDGEFIELD PLAINS,1.405383412,103.9129608
288E BT BATOK ST 25,1.345512407,103.7588975
810 WOODLANDS ST 81,1.442672212,103.7881523
220C BEDOK CTRL,1.325531755,103.9338545
102 TECK WHYE LANE,1.377082841,103.7543944
9 TOH YI DR,1.338304798,103.7735416
554 WOODLANDS DR 53,1.432104164,103.7964908
718 BEDOK RESERVOIR RD,1.336630599,103.9257485
867 WOODLANDS ST 83,1.442162671,103.7931296
430 TAMPINES ST 41,1.359552581,103.9501482
107 PASIR RIS ST 12,1.367509667,103.9575189
455 SIN MING AVE,1.358728426,103.8306428
105 JLN RAJAH,1.3285791,103.8538725
604 ELIAS RD,1.376245278,103.9432648
251 YISHUN RING RD,1.434748448,103.8413872
210 BT BATOK ST 21,1.345480082,103.7499561
462 CLEMENTI AVE 3,1.31109876,103.7659064
899 TAMPINES ST 81,1.346529142,103.9354537
285B TOH GUAN RD,1.338423949,103.7468549
456 CHOA CHU KANG AVE 4,1.379021762,103.7352147
157 LOR 1 TOA PAYOH,1.332206263,103.8454529
4C ST. GEORGE'S LANE,1.322194974,103.8608318
420 BEDOK NTH ST 1,1.327744679,103.9288744
314 HOUGANG AVE 5,1.364764652,103.8942188
83 REDHILL LANE,1.286868975,103.8194359
242 HOUGANG ST 22,1.357388977,103.8921679
4 TECK WHYE AVE,1.381939295,103.7528067
331C ANCHORVALE ST,1.395577911,103.8897737
631 CHOA CHU KANG NTH 6,1.396609611,103.7481052
503B CANBERRA LINK,1.450394565,103.8220664
28 BENDEMEER RD,1.318698325,103.8632322
709 YISHUN AVE 5,1.428569002,103.8277354
654B JURONG WEST ST 61,1.336161152,103.6979399
54 GEYLANG BAHRU,1.323883719,103.8678648
411 PASIR RIS DR 6,1.37250232,103.9543667
446 CHOA CHU KANG AVE 4,1.380712996,103.7368914
255 BANGKIT RD,1.379586635,103.7730532
403 PANDAN GDNS,1.320329641,103.7493901
364 TAMPINES ST 34,1.35693801,103.9598735
836 TAMPINES ST 82,1.350576894,103.9352048
163A RIVERVALE CRES,1.389558899,103.9088169
1A WOODLANDS CTR RD,1.441957284,103.7709939
216C COMPASSVALE DR,1.390473611,103.8943181
893C WOODLANDS DR 50,1.436318427,103.7904601
758 PASIR RIS ST 71,1.376824237,103.9333195
731 YISHUN ST 72,1.428348586,103.8311163
436 FAJAR RD,1.382259136,103.7702689
526 CHOA CHU KANG ST 51,1.391354054,103.7418933
275A COMPASSVALE LINK,1.382874162,103.8946037
196D PUNGGOL FIELD,1.399660814,103.9072345
606 ELIAS RD,1.37666667,103.9426484
292 TAMPINES ST 22,1.350183594,103.9557757
636 PASIR RIS DR 1,1.376790486,103.9407416
536 PASIR RIS DR 1,1.370631438,103.9498276
744 YISHUN ST 72,1.429337058,103.834043
532 ANG MO KIO AVE 10,1.373808515,103.8545942
514 JURONG WEST ST 52,1.346748456,103.7201532
129 BEDOK NTH ST 2,1.327554432,103.9380305
503 PASIR RIS ST 52,1.375708798,103.9454818
124B RIVERVALE DR,1.38829484,103.9031585
129 BT MERAH VIEW,1.283578705,103.8238192
605 JURONG WEST ST 62,1.338457974,103.6995644
32 GHIM MOH LINK,1.310063407,103.7844981
354 CLEMENTI AVE 2,1.313513864,103.7708611
435C FERNVALE RD,1.393599788,103.876913
837 JURONG WEST ST 81,1.343077335,103.692906
715 JURONG WEST ST 71,1.34374461,103.6964188
646 PUNGGOL CTRL,1.398148805,103.9157809
722 TAMPINES ST 72,1.359892545,103.9358593
246 YISHUN AVE 9,1.435090858,103.842691
647 JURONG WEST ST 61,1.340111291,103.6973881
23 HOUGANG AVE 3,1.364866664,103.890728
637 CHOA CHU KANG NTH 6,1.397379525,103.748139
164A RIVERVALE CRES,1.390070297,103.9072732
84 TELOK BLANGAH HTS,1.276853136,103.8099486
688A CHOA CHU KANG DR,1.403963875,103.7505663
256 TAMPINES ST 21,1.353235727,103.9499466
201 JURONG EAST ST 21,1.33640567,103.7430754
233 JURONG EAST ST 21,1.340374621,103.7409366
630 PASIR RIS DR 3,1.378382153,103.9410968
842C TAMPINES ST 82,1.350928954,103.9367585
474 SEMBAWANG DR,1.450712103,103.8165436
162A RIVERVALE CRES,1.390359613,103.9076367
202 YISHUN ST 21,1.430661919,103.8373343
26A JLN MEMBINA,1.283062285,103.8260599
602 HOUGANG AVE 4,1.371232979,103.886918
104 TECK WHYE LANE,1.377081621,103.7528704
642 HOUGANG AVE 8,1.371698789,103.8799483
406B FERNVALE RD,1.38842869,103.8743229
23B QUEEN'S CL,1.294073335,103.8000265
363 HOUGANG AVE 5,1.369900384,103.8963935
335 SEMBAWANG CL,1.447163473,103.8150135
111 CLEMENTI ST 13,1.323216054,103.7711261
716 YISHUN ST 71,1.426210966,103.8277041
645 PASIR RIS DR 10,1.378419649,103.9377905
34 BEDOK STH AVE 2,1.322056529,103.9383547
3 HOLLAND CL,1.308208713,103.7966389
113 SIMEI ST 1,1.342854256,103.9498804
5 TOH YI DR,1.338202368,103.7745226
155 LOR 1 TOA PAYOH,1.332796311,103.8455886
104 BEDOK NTH AVE 4,1.333298521,103.9366015
70B TELOK BLANGAH HTS,1.276749457,103.8105415
605 WOODLANDS DR 42,1.437185595,103.7970904
818 TAMPINES ST 81,1.347972295,103.9368382
36 CIRCUIT RD,1.329026079,103.8869308
121D CANBERRA ST,1.447037762,103.8339235
106 SPOTTISWOODE PK RD,1.273566738,103.8340582
408 BEDOK NTH AVE 2,1.328523202,103.932856
308C ANCHORVALE RD,1.389227472,103.8868447
574B WOODLANDS DR 16,1.42968121,103.7972198
252 PASIR RIS ST 21,1.368172718,103.9625637
209 TOA PAYOH NTH,1.341853483,103.8448147
678D JURONG WEST ST 64,1.344864896,103.7033954
313 WOODLANDS ST 31,1.430803873,103.7761724
31 HOLLAND CL,1.306975268,103.7970803
443 ANG MO KIO AVE 10,1.366043889,103.855369
231 CHOA CHU KANG CTRL,1.38008136,103.7461131
1 EVERTON PK,1.277426543,103.8400012
422 ANG MO KIO AVE 3,1.367999888,103.8518739
64 MARINE DR,1.302112802,103.9094814
365B UPP SERANGOON RD,1.36920419,103.8975129
329 ANG MO KIO AVE 3,1.366599086,103.8468744
297 TAMPINES ST 22,1.351149909,103.9547925
309 HOUGANG AVE 5,1.366205547,103.8951524
206 CLEMENTI AVE 6,1.321501158,103.7622287
227A COMPASSVALE DR,1.387044698,103.9003587
112 YISHUN RING RD,1.434168645,103.829055
405 HOUGANG AVE 10,1.374049696,103.8964593
880 TAMPINES AVE 8,1.351326082,103.9314788
283 CHOA CHU KANG AVE 3,1.379708716,103.7428712
520 JURONG WEST ST 52,1.346098838,103.7178764
662 YISHUN AVE 4,1.420539324,103.8406901
117 PENDING RD,1.377301281,103.7679793
110 LOR 1 TOA PAYOH,1.341552751,103.8463859
210 BOON LAY PL,1.347645928,103.7129332
638 CHOA CHU KANG ST 64,1.397806514,103.7483725
245 SERANGOON AVE 2,1.352440857,103.8691775
80 LOR 4 TOA PAYOH,1.335263461,103.8485168
636 CHOA CHU KANG NTH 6,1.397277753,103.748932
628A WOODLANDS RING RD,1.434974774,103.8008507
361 YISHUN RING RD,1.428324759,103.8459083
937 HOUGANG ST 92,1.374744873,103.8792971
323B SENGKANG EAST WAY,1.392095507,103.8925507
10 YUNG KUANG RD,1.331738251,103.722412
526 JELAPANG RD,1.385458629,103.7652187
805 YISHUN RING RD,1.417427227,103.8315889
329 BT BATOK ST 33,1.363126337,103.7474185
512 WEST COAST DR,1.309959001,103.7602103
244 HOUGANG ST 22,1.358072532,103.8919468
220 PASIR RIS ST 21,1.369872342,103.9615826
387 TAMPINES ST 32,1.355303144,103.9587762
15 TECK WHYE LANE,1.379133573,103.7547387
231 BT BATOK EAST AVE 5,1.34908255,103.7545182
254 COMPASSVALE RD,1.394267751,103.8997517
713 CLEMENTI WEST ST 2,1.304127842,103.7622063
542 WOODLANDS DR 16,1.427731875,103.7936251
331A ANCHORVALE ST,1.395949757,103.8904679
914 TAMPINES ST 91,1.349027771,103.9395684
659 WOODLANDS RING RD,1.435997973,103.7990658
849 YISHUN RING RD,1.416983166,103.8352182
185 EDGEFIELD PLAINS,1.398068147,103.9101669
533 SERANGOON NTH AVE 4,1.37453578,103.8745983
257 BOON LAY DR,1.34582026,103.7082524
359 YUNG AN RD,1.336111403,103.721401
543 BEDOK NTH ST 3,1.330336594,103.9232235
752 JURONG WEST ST 74,1.348527627,103.6994288
333 HOUGANG AVE 5,1.368497615,103.898423
406 WOODLANDS ST 41,1.429403896,103.7727281
30 TEBAN GDNS RD,1.320822826,103.7390755
418 JURONG WEST ST 42,1.351144544,103.7264731
561B JURONG WEST ST 42,1.354771027,103.7196726
290C BT BATOK EAST AVE 3,1.344095802,103.7572753
194 BISHAN ST 13,1.348299123,103.8514194
107 BT PURMEI RD,1.273101655,103.8245086
445 CLEMENTI AVE 3,1.313359326,103.7639026
24 TELOK BLANGAH CRES,1.275409491,103.8206605
629 HOUGANG AVE 8,1.369954124,103.8812179
43 MARINE CRES,1.305518881,103.913022
425 FAJAR RD,1.385857994,103.769496
112 PASIR RIS ST 11,1.367705774,103.9557964
215 BOON LAY PL,1.348684375,103.7123598
117 SIMEI ST 1,1.344585551,103.9513156
263 WATERLOO ST,1.298608861,103.852267
151 JLN TECK WHYE,1.378410614,103.7572511
699B HOUGANG ST 52,1.376702901,103.888277
118 HOUGANG AVE 1,1.353459572,103.887488
502 WOODLANDS DR 14,1.433180088,103.7917904
415 YISHUN AVE 11,1.424442637,103.8458701
316 BT BATOK ST 32,1.360576605,103.746834
123C RIVERVALE DR,1.386408522,103.9022221
698B JURONG WEST CTRL 3,1.340651295,103.7075062
124 SERANGOON NTH AVE 1,1.366186896,103.8714195
777 WOODLANDS CRES,1.447860593,103.799328
524 CHOA CHU KANG ST 51,1.391578626,103.7411579
129 PASIR RIS ST 11,1.366518697,103.9556234
771 WOODLANDS DR 60,1.446765941,103.7979619
57 CHAI CHEE DR,1.325926451,103.9203125
291 TAMPINES ST 22,1.350022498,103.955182
6 TELOK BLANGAH CRES,1.278140813,103.818484
45 JLN BAHAGIA,1.327535232,103.8572876
294 PUNGGOL CTRL,1.402571817,103.9046355
155 JLN TECK WHYE,1.378936937,103.7571651
805 TAMPINES AVE 4,1.346115458,103.9374085
549 PASIR RIS ST 51,1.367866285,103.9535071
588B ANG MO KIO ST 52,1.371975713,103.8531509
214 JURONG EAST ST 21,1.33928626,103.7389852
147 PASIR RIS ST 13,1.363100578,103.9620123
510A WELLINGTON CIRCLE,1.453474362,103.8203175
251 BT BATOK EAST AVE 5,1.350807033,103.7575336
221C BEDOK CTRL,1.324999166,103.9342344
981B BUANGKOK CRES,1.380469875,103.880038
466 JURONG WEST ST 41,1.349848562,103.722671
407 FAJAR RD,1.381444711,103.7683059
124 PAYA LEBAR WAY,1.323088767,103.8837391
51 LENGKOK BAHRU,1.287613426,103.8122721
467A FERNVALE LINK,1.39798359,103.878459
121 BISHAN ST 12,1.347186678,103.8510492
33 TAMAN HO SWEE,1.288387331,103.8313271
631 WOODLANDS RING RD,1.435321386,103.801399
98 WHAMPOA DR,1.321580687,103.854151
683D WOODLANDS DR 62,1.440746753,103.8031394
255 ANG MO KIO AVE 4,1.370654871,103.8346302
290 BISHAN ST 24,1.356137785,103.8448977
414 CHOA CHU KANG AVE 4,1.382166605,103.7422483
115 LOR 1 TOA PAYOH,1.340631407,103.8443052
111 ANG MO KIO AVE 4,1.37085149,103.8372982
899B WOODLANDS DR 50,1.436133348,103.7952643
202 ANG MO KIO AVE 3,1.36844644,103.8445163
200D SENGKANG EAST RD,1.387261512,103.8930077
911 HOUGANG ST 91,1.378937489,103.8838571
605 CLEMENTI WEST ST 1,1.305384901,103.7680203
44 TEBAN GDNS RD,1.320753918,103.7416002
841 JURONG WEST ST 81,1.344551834,103.6928373
146 YISHUN ST 11,1.431001762,103.8324685
514 SERANGOON NTH AVE 4,1.370890106,103.8743912
221 BOON LAY PL,1.346373764,103.7124728
310C ANG MO KIO AVE 1,1.364611946,103.8448513
313B SUMANG LINK,1.410239547,103.9021436
514 CHOA CHU KANG ST 51,1.390305083,103.7430879
414 SAUJANA RD,1.382733777,103.7690557
6 UPP BOON KENG RD,1.313710021,103.8697978
558 ANG MO KIO AVE 10,1.371236133,103.859192
76A REDHILL RD,1.28871632,103.8168546
311D ANCHORVALE LANE,1.39185684,103.8847024
63 NEW UPP CHANGI RD,1.323784101,103.939939
1 MARSILING DR,1.440671099,103.7757399
709 BEDOK RESERVOIR RD,1.335416066,103.9223501
362 YUNG AN RD,1.336161553,103.7197834
411 JURONG WEST ST 42,1.353722571,103.7252027
670 HOUGANG AVE 8,1.373026896,103.8847732
436 TAMPINES ST 43,1.359589666,103.9515908
280 BT BATOK EAST AVE 3,1.347701477,103.7570446
896B WOODLANDS DR 50,1.436924425,103.7925688
3 PINE CL,1.306928776,103.8831105
603B PUNGGOL RD,1.40314294,103.9083163
511 ANG MO KIO AVE 8,1.37356775,103.8501541
254 ANG MO KIO AVE 4,1.37020344,103.8346877
816 YISHUN ST 81,1.411770944,103.8333683
336B YISHUN ST 31,1.43137338,103.8443314
124 TECK WHYE LANE,1.38010501,103.749632
890A TAMPINES AVE 1,1.346724487,103.9338761
3 REDHILL CL,1.284554804,103.8167009
661 JLN DAMAI,1.334483695,103.9079699
173 HOUGANG AVE 1,1.350124655,103.8888382
682D WOODLANDS DR 73,1.440960638,103.8047265
634 ANG MO KIO AVE 6,1.381582081,103.8432735
270 TAMPINES ST 21,1.34963011,103.9486352
984A BUANGKOK LINK,1.381982707,103.8812177
360 WOODLANDS AVE 5,1.434047752,103.7845013
739 WOODLANDS CIRCLE,1.444228709,103.7970254
622 SENJA RD,1.385932525,103.761421
511A YISHUN ST 51,1.415662301,103.8414486
250 KIM KEAT LINK,1.331994266,103.8566507
637A YISHUN ST 61,1.420460297,103.8392862
746 YISHUN ST 72,1.428920039,103.8334762
178 BISHAN ST 13,1.348127431,103.8523303
650 PASIR RIS DR 10,1.378727637,103.9380753
52 TEBAN GDNS RD,1.321009823,103.7374828
59B GEYLANG BAHRU,1.322126054,103.8679955
337D TAH CHING RD,1.337332246,103.721601
475B UPP SERANGOON CRES,1.375774046,103.8999657
27B JLN MEMBINA,1.282908655,103.824868
824 JURONG WEST ST 81,1.346400047,103.6941394
823 JURONG WEST ST 81,1.346705198,103.694271
39 CAMBRIDGE RD,1.316338073,103.8484685
622C PUNGGOL CTRL,1.400662015,103.9109144
130 EDGEDALE PLAINS,1.393172994,103.9100553
896 TAMPINES ST 81,1.348303274,103.9324517
48 LOR 5 TOA PAYOH,1.337083957,103.853541
250 TAMPINES ST 21,1.352318623,103.948458
765 JURONG WEST ST 74,1.350082252,103.6983946
420 PASIR RIS DR 6,1.371427438,103.9544791
572 CHOA CHU KANG ST 52,1.393717621,103.7453038
302A WOODLANDS ST 31,1.431855587,103.775294
109 SPOTTISWOODE PK RD,1.274031873,103.8366527
202 JURONG EAST ST 21,1.336761278,103.7429663
36 EUNOS CRES,1.321171644,103.9017728
475D UPP SERANGOON CRES,1.375182544,103.900406
118 POTONG PASIR AVE 1,1.335481474,103.8626538
620 YISHUN RING RD,1.418923552,103.8346742
354C ADMIRALTY DR,1.450644444,103.8182495
108 ALJUNIED CRES,1.319175152,103.8853216
289F BT BATOK ST 25,1.34463617,103.7590468
218 ANG MO KIO AVE 1,1.365119086,103.8417425
150 PASIR RIS ST 13,1.362737578,103.962977
391 TAMPINES AVE 7,1.355631541,103.9579533
447 TAMPINES ST 42,1.357359063,103.9504855
299 PUNGGOL CTRL,1.402706152,103.9053082
323 HOUGANG AVE 5,1.367227506,103.8977983
891A TAMPINES AVE 8,1.348710101,103.9309634
266B COMPASSVALE BOW,1.382579359,103.8972253
38 TANGLIN HALT RD,1.297508103,103.7987228
802 WOODLANDS ST 81,1.440940295,103.786015
555 PASIR RIS ST 51,1.368008219,103.95191
903 TAMPINES AVE 4,1.350976363,103.9397611
503 BEDOK NTH ST 3,1.331483875,103.9324659
244 SIMEI ST 5,1.343811391,103.9545032
661 BUFFALO RD,1.306710983,103.8501344
48 DORSET RD,1.31424121,103.8506228
293C COMPASSVALE CRES,1.397103293,103.8957147
468A FERNVALE LINK,1.397479085,103.8785001
230 ANG MO KIO AVE 3,1.368854452,103.8378964
443 JURONG WEST AVE 1,1.351802537,103.7203941
110 TECK WHYE LANE,1.378213713,103.751983
828 TAMPINES ST 81,1.348930841,103.9345881
484 PASIR RIS DR 4,1.373603458,103.9605578
297 BT BATOK ST 22,1.345040665,103.7473895
339 JURONG EAST AVE 1,1.349532517,103.7315322
617B PUNGGOL DR,1.40215673,103.9121478
410 YISHUN RING RD,1.426349826,103.8465743
830 JURONG WEST ST 81,1.34533161,103.6934366
133 MARSILING RISE,1.437533895,103.778071
213A COMPASSVALE LANE,1.385816244,103.9002069
9 MARSILING DR,1.441291529,103.7764497
3 EVERTON PK,1.277217301,103.838704
476 SEGAR RD,1.38889499,103.7729059
111 GANGSA RD,1.378167474,103.7683657
168 WOODLANDS ST 11,1.432959349,103.7767377
407 CLEMENTI AVE 1,1.310581824,103.7678158
342 WOODLANDS AVE 1,1.431957208,103.7811125
215 MARSILING LANE,1.447607576,103.772062
896C WOODLANDS DR 50,1.436761756,103.79334
758 WOODLANDS AVE 6,1.445793293,103.7954527
20 QUEEN'S CL,1.292750071,103.7999359
143 RIVERVALE DR,1.390065928,103.9057234
407 BEDOK NTH AVE 3,1.3284632,103.9336828
164 BEDOK STH RD,1.32011535,103.9465703
120A CANBERRA CRES,1.446140803,103.8322362
353B ADMIRALTY DR,1.450165067,103.8193068
240 JURONG EAST ST 21,1.341067511,103.7415732
332A ANCHORVALE LINK,1.395321644,103.8911368
418 BEDOK NTH AVE 2,1.328564212,103.9300365
749 YISHUN ST 72,1.428375953,103.8341135
66 COMMONWEALTH DR,1.299116852,103.7965838
979 JURONG WEST ST 93,1.339733216,103.6944943
135 BISHAN ST 12,1.344562168,103.8512876
203E COMPASSVALE RD,1.387950188,103.8957793
316A YISHUN AVE 9,1.433355307,103.8427051
258 BISHAN ST 22,1.359813989,103.8426907
132 BT BATOK WEST AVE 6,1.350652438,103.7456252
658B JURONG WEST ST 65,1.336489677,103.7007574
441 ANG MO KIO AVE 10,1.366050278,103.8541683
302 CANBERRA RD,1.445012831,103.8230725
9B BOON TIONG RD,1.286814178,103.8289283
120 MCNAIR RD,1.319470224,103.8570358
491 ADMIRALTY LINK,1.456112789,103.8177166
103 BISHAN ST 12,1.345512491,103.8483142
271B JURONG WEST ST 24,1.350504607,103.7042506
351 CLEMENTI AVE 2,1.31535007,103.7708614
3D UPP BOON KENG RD,1.313297839,103.8728376
138A LOR 1A TOA PAYOH,1.336710985,103.8454729
260 YISHUN ST 22,1.435477541,103.8392765
571 PASIR RIS ST 53,1.373099927,103.9456742
186 BISHAN ST 13,1.349345586,103.8525788
413 COMMONWEALTH AVE WEST,1.311347304,103.7710974
895A WOODLANDS DR 50,1.436073712,103.7914885
183 BISHAN ST 13,1.350458535,103.8524762
760 YISHUN ST 72,1.425794855,103.8327247
861 TAMPINES AVE 5,1.355064376,103.9372824
265D PUNGGOL WAY,1.40482605,103.8983017
853 JURONG WEST ST 81,1.347169512,103.6930875
497G TAMPINES ST 45,1.36034648,103.9597168
652 PUNGGOL CTRL,1.396953111,103.9157376
167 WOODLANDS ST 11,1.433593706,103.7758841
164 BT BATOK ST 11,1.347716975,103.7428317
350 CHOA CHU KANG CTRL,1.383527841,103.7434692
820 YISHUN ST 81,1.413099011,103.8338677
547 SERANGOON NTH AVE 3,1.373752132,103.8706448
327 UBI AVE 1,1.32690473,103.9039977
316C YISHUN AVE 9,1.432923061,103.8434727
142 BISHAN ST 12,1.345501861,103.8534436
19 KG BAHRU HILL,1.276622427,103.8309516
432 HOUGANG AVE 6,1.376247476,103.8931285
868C TAMPINES AVE 8,1.355857801,103.9333344
489 JURONG WEST AVE 1,1.349174596,103.7272398
197 RIVERVALE DR,1.392607205,103.9035635
162 JLN TECK WHYE,1.380865519,103.7576837
423 CANBERRA RD,1.453741321,103.8181238
488B TAMPINES ST 45,1.360329217,103.9569806
471 JURONG WEST ST 41,1.348494278,103.7221629
55 TEBAN GDNS RD,1.321891973,103.7375516
7 HOUGANG AVE 3,1.362327219,103.8935108
317C ANCHORVALE RD,1.393459985,103.8882235
274A COMPASSVALE BOW,1.381553554,103.8905631
418 FAJAR RD,1.384319661,103.7688659
390 YISHUN AVE 6,1.429212793,103.8484039
979C BUANGKOK CRES,1.379538909,103.8799544
565 PASIR RIS ST 51,1.36882714,103.9502962
684 RACE COURSE RD,1.314307076,103.8566595
252 BANGKIT RD,1.379953428,103.7740584
864 JURONG WEST ST 81,1.349483401,103.6945561
555 HOUGANG ST 51,1.379529422,103.8898905
144 RIVERVALE DR,1.389169723,103.9059303
150 PETIR RD,1.37704616,103.7668835
519 PASIR RIS ST 52,1.374063065,103.9451222
35 JLN BAHAGIA,1.326740506,103.8575763
119 BEDOK NTH RD,1.33018552,103.9387166
650 SENJA LINK,1.38691071,103.7633102
108 POTONG PASIR AVE 1,1.334720043,103.8679284
410 JURONG WEST ST 42,1.353673528,103.7263843
28 CASSIA CRES,1.30894453,103.8835301
445A FERNVALE RD,1.392220138,103.8744098
543 ANG MO KIO AVE 10,1.374301144,103.8562356
308 CLEMENTI AVE 4,1.32105185,103.7669104
10 TEBAN GDNS RD,1.322346045,103.7429851
43 HOLLAND DR,1.307434111,103.7928976
741 PASIR RIS ST 71,1.377553847,103.9363835
771 PASIR RIS ST 71,1.375530561,103.9364951
34 MARINE CRES,1.30414964,103.912124
610 ELIAS RD,1.375311012,103.9420473
978 JURONG WEST ST 93,1.340536279,103.6940774
105 PASIR RIS ST 12,1.368437921,103.9575388
338A TAH CHING RD,1.337814968,103.7221848
76 MARINE DR,1.302935008,103.907739
177 BISHAN ST 13,1.347846232,103.8535496
206 SERANGOON CTRL,1.353475064,103.8733923
820 WOODLANDS ST 82,1.441186536,103.7901509
127 POTONG PASIR AVE 1,1.335034455,103.8655056
255 COMPASSVALE RD,1.394317361,103.8992082
429 HOUGANG AVE 6,1.375434885,103.8937434
147 TAMPINES AVE 5,1.349232388,103.942181
168A QUEENSWAY,1.289285559,103.8034015
812 TAMPINES AVE 4,1.346954032,103.9373329
34 LOR 5 TOA PAYOH,1.334799733,103.8541555
870 TAMPINES ST 83,1.354364518,103.9333916
715 BEDOK RESERVOIR RD,1.337429658,103.9231549
254 BISHAN ST 22,1.361923241,103.8429992
539 ANG MO KIO AVE 10,1.375374291,103.8542588
13 FARRER PK RD,1.311600762,103.8514001
337 JURONG EAST AVE 1,1.349683705,103.7319057
767 CHOA CHU KANG ST 54,1.393814035,103.7493987
895C WOODLANDS DR 50,1.43566901,103.7926048
493B TAMPINES AVE 9,1.362265899,103.9520601
296A BT BATOK ST 22,1.344093582,103.7464092
228B COMPASSVALE WALK,1.387962007,103.9013739
359 BT BATOK ST 31,1.361343704,103.7512307
607 HOUGANG AVE 4,1.370252027,103.8861577
133 JLN BT MERAH,1.279550933,103.8274009
518 JELAPANG RD,1.387032812,103.7669243
170 WOODLANDS ST 11,1.433634725,103.7762941
928 TAMPINES ST 91,1.345973363,103.9402106
689B CHOA CHU KANG DR,1.403134828,103.7497931
471A UPP SERANGOON CRES,1.37814544,103.9017673
376C HOUGANG ST 32,1.364063225,103.8936798
316D PUNGGOL WAY,1.408793114,103.8968121
566 PASIR RIS ST 51,1.369117523,103.9497161
358 YUNG AN RD,1.336414673,103.7207737
4 HOLLAND CL,1.307968264,103.7956465
173 WOODLANDS ST 13,1.432967231,103.7778075
176A EDGEFIELD PLAINS,1.398860781,103.9082666
335B YISHUN ST 31,1.432841842,103.8443331
138 BT BATOK WEST AVE 6,1.35044712,103.7444719
469 ADMIRALTY DR,1.448531846,103.8140388
197D BOON LAY DR,1.343607885,103.7138694
214 BEDOK NTH ST 1,1.325875651,103.932493
358 BT BATOK ST 31,1.361412265,103.7507505
63 MARINE DR,1.302380702,103.9092389
184C RIVERVALE CRES,1.3926658,103.9077167
120 TECK WHYE LANE,1.378841849,103.7503406
123 TECK WHYE LANE,1.379196361,103.7494577
108 MCNAIR RD,1.321619038,103.8593827
258 JURONG EAST ST 24,1.343786349,103.7386358
143 MARSILING RD,1.436746881,103.7767256
849 WOODLANDS ST 82,1.441310594,103.7920656
312A ANCHORVALE LANE,1.391733742,103.8851556
513 JURONG WEST ST 52,1.347457598,103.719968
412 BEDOK NTH AVE 2,1.329291261,103.9310907
456 TAMPINES ST 42,1.357648618,103.9545395
817 TAMPINES ST 81,1.347635077,103.9366956
745 WOODLANDS CIRCLE,1.442158177,103.7956085
169 BOON LAY DR,1.347822146,103.7075721
664A JURONG WEST ST 64,1.339206416,103.7033975
182 BT BATOK WEST AVE 8,1.345564022,103.7438215
303A ANCHORVALE LINK,1.387078862,103.8907765
128 ANG MO KIO AVE 3,1.370832028,103.843547
673 CHOA CHU KANG CRES,1.401328025,103.7481361
520 WOODLANDS DR 14,1.434174103,103.7923973
240 COMPASSVALE WALK,1.390750815,103.8979469
309C ANCHORVALE RD,1.391098224,103.8857612
747B BEDOK RESERVOIR CRES,1.336660095,103.9216247
844 TAMPINES ST 82,1.352102995,103.9365343
426B YISHUN AVE 11,1.422721485,103.8463669
465 UPP SERANGOON RD,1.371907883,103.8970129
322 YISHUN CTRL,1.428734428,103.8408362
143 LOR 2 TOA PAYOH,1.335884354,103.8439913
517 BEDOK NTH AVE 2,1.331089066,103.9292045
772 PASIR RIS ST 71,1.375375847,103.9369737
244 BT BATOK EAST AVE 5,1.349182698,103.7572392
183 BEDOK NTH RD,1.32643686,103.9418509
642B PUNGGOL DR,1.398284533,103.9162553
470B FERNVALE LINK,1.396871179,103.8798595
288E JURONG EAST ST 21,1.3403455,103.7437109
304 CLEMENTI AVE 4,1.320934209,103.7649865
601 WOODLANDS DR 42,1.438647189,103.7965181
681 CHOA CHU KANG CRES,1.403043344,103.7455898
532 BEDOK NTH ST 3,1.334191739,103.9253866
479 SEMBAWANG DR,1.452442223,103.8158081
761 JURONG WEST ST 74,1.349040312,103.6994598
13 JOO SENG RD,1.335704462,103.879466
782E WOODLANDS CRES,1.448051539,103.8027088
545 BT PANJANG RING RD,1.381596421,103.7634963
836 YISHUN ST 81,1.415452186,103.8330911
114 HOUGANG AVE 1,1.352908458,103.8889723
518 SERANGOON NTH AVE 4,1.371641182,103.8741031
112 BEDOK NTH RD,1.331049078,103.9355388
551 ANG MO KIO AVE 10,1.37392862,103.8586657
352C CANBERRA RD,1.449837647,103.819822
572 PASIR RIS ST 53,1.37352014,103.9456155
675B JURONG WEST ST 64,1.345753081,103.7036418
334D YISHUN ST 31,1.43241465,103.8465171
490A TAMPINES ST 45,1.362021729,103.9567726
415 JURONG WEST ST 42,1.352824319,103.7249823
668B EDGEFIELD PLAINS,1.404782919,103.9129785
986B BUANGKOK CRES,1.382272735,103.8801292
412 JURONG WEST ST 42,1.353251021,103.7261403
544 ANG MO KIO AVE 10,1.373959619,103.8564714
123E RIVERVALE DR,1.386649169,103.9027247
131 GEYLANG EAST AVE 1,1.316758614,103.8868112
465 SEGAR RD,1.387227629,103.7727901
637B PUNGGOL DR,1.39949597,103.9149545
541 WOODLANDS DR 16,1.428019044,103.793054
672B YISHUN AVE 4,1.418590807,103.8418239
128 LOR AH SOO,1.351723552,103.8864872
331 CLEMENTI AVE 2,1.314137854,103.7679422
716 TAMPINES ST 71,1.359389874,103.9366328
81A LOR 4 TOA PAYOH,1.335658357,103.8500776
240 TAMPINES ST 21,1.35500407,103.9471214
424C YISHUN AVE 11,1.423258712,103.849155
562 HOUGANG ST 51,1.380932203,103.8891214
168D PUNGGOL FIELD,1.393746763,103.9140016
264A PUNGGOL WAY,1.405977041,103.8985441
106 JURONG EAST ST 13,1.337249651,103.7376747
314 SERANGOON AVE 2,1.352922097,103.8655184
490B CHOA CHU KANG AVE 5,1.37562312,103.7413407
755 JURONG WEST ST 74,1.348403591,103.7008452
113 CLEMENTI ST 13,1.323684011,103.7701323
230 HOUGANG AVE 1,1.358899944,103.8883458
134 SIMEI ST 1,1.348148616,103.9556484
318 TAMPINES ST 33,1.35146094,103.9560749
617C PUNGGOL DR,1.40194562,103.9124567
504 BT BATOK ST 52,1.351965603,103.7549837
702 TAMPINES ST 71,1.356172537,103.9374799
485 CHOA CHU KANG AVE 5,1.374998438,103.7377443
276B JURONG WEST AVE 3,1.352663872,103.7044481
160 YISHUN ST 11,1.432414546,103.8333445
650 ANG MO KIO ST 61,1.37769118,103.8427452
469 SEGAR RD,1.387889257,103.7732879
27 MARINE CRES,1.304025089,103.9135015
121 BEDOK NTH RD,1.329642018,103.9388211
158C RIVERVALE CRES,1.38818826,103.9071458
302D ANCHORVALE LINK,1.388203709,103.8897192
686D CHOA CHU KANG CRES,1.404117446,103.748355
102 PASIR RIS ST 12,1.367484273,103.9580411
513C YISHUN ST 51,1.415407805,103.8438014
262 JURONG EAST ST 24,1.344127143,103.7411124
290 CHOA CHU KANG AVE 3,1.378854301,103.740417
830A JURONG WEST ST 81,1.345257887,103.694214
501 ANG MO KIO AVE 5,1.375984861,103.8488605
939 HOUGANG ST 92,1.373958248,103.8796952
128B PUNGGOL FIELD WALK,1.392987926,103.9128831
409B FERNVALE RD,1.389498161,103.877012
750 WOODLANDS AVE 4,1.444340363,103.7939491
323C SENGKANG EAST WAY,1.392913337,103.8924033
122 KIM TIAN RD,1.283391874,103.828894
35 JLN RUMAH TINGGI,1.287973009,103.8088393
126 POTONG PASIR AVE 1,1.334972463,103.8652343
158 WOODLANDS ST 13,1.434032157,103.77478
436 HOUGANG AVE 8,1.377209778,103.8938456
588 WOODLANDS DR 16,1.427666799,103.794644
406 CHOA CHU KANG AVE 3,1.380373895,103.7402096
303D PUNGGOL PL,1.404238647,103.905015
251 BANGKIT RD,1.380300455,103.774175
307 SERANGOON AVE 2,1.354628177,103.8670687
338 JURONG EAST AVE 1,1.350220569,103.7312606
323 CLEMENTI AVE 5,1.315829369,103.7670901
705 BEDOK NTH RD,1.336636818,103.9189953
648A JURONG WEST ST 61,1.338327809,103.6976379
635 YISHUN ST 61,1.419230704,103.8389821
440C CLEMENTI AVE 3,1.316633716,103.7639341
542 JELAPANG RD,1.382958952,103.7639516
651 YISHUN AVE 4,1.423365101,103.8391035
774 WOODLANDS CRES,1.448147598,103.7991427
401 SERANGOON AVE 1,1.346265987,103.8731998
335 CLEMENTI AVE 2,1.316994112,103.7685066
446 HOUGANG AVE 8,1.378804588,103.8942838
927 TAMPINES ST 91,1.346152939,103.9404977
813 TAMPINES ST 81,1.346950818,103.9364162
201A TAMPINES ST 21,1.353264124,103.9526074
248 PASIR RIS ST 21,1.370603757,103.9630196
10 LOR 7 TOA PAYOH,1.337165276,103.8572288
856B TAMPINES ST 82,1.353110317,103.9376999
193 RIVERVALE DR,1.393628324,103.901775
328 HOUGANG AVE 5,1.368743698,103.8967971
143 LOR AH SOO,1.352233427,103.8828416
497A TAMPINES ST 45,1.359332001,103.958581
204B PUNGGOL FIELD,1.398682245,103.9032111
54 TEBAN GDNS RD,1.321598465,103.7369231
279 CHOA CHU KANG AVE 3,1.380694622,103.7434344
575 HOUGANG ST 51,1.377939795,103.8869766
11 JLN BATU,1.335757259,103.7876499
416 SERANGOON CTRL,1.350205615,103.8748185
990B JURONG WEST ST 93,1.335277509,103.6947762
690 HOUGANG ST 61,1.376932057,103.885697
415 CHOA CHU KANG AVE 4,1.382746109,103.7424461
59A GEYLANG BAHRU,1.322653854,103.8682269
333 SEMBAWANG CL,1.446990209,103.8164162
28 NEW UPP CHANGI RD,1.32369452,103.9349949
140 BEDOK RESERVOIR RD,1.334889914,103.9133862
122 SIMEI ST 1,1.345571773,103.9524981
684B WOODLANDS DR 73,1.441837236,103.8047664
393 BT BATOK WEST AVE 5,1.366493281,103.7531126
320 BT BATOK ST 33,1.361206731,103.7469292
778 PASIR RIS ST 71,1.374416936,103.9382074
230F TAMPINES ST 24,1.356254174,103.9507527
48 CIRCUIT RD,1.325410325,103.885651
334 SERANGOON AVE 3,1.350241249,103.8708324
120 BEDOK RESERVOIR RD,1.330892472,103.9099209
353 YISHUN RING RD,1.426137278,103.8452165
686A CHOA CHU KANG CRES,1.404389567,103.7478564
591A MONTREAL LINK,1.450756278,103.8262367
116C RIVERVALE DR,1.3821551,103.9028522
101 PASIR RIS ST 12,1.367050215,103.9581819
435A FERNVALE RD,1.393398979,103.8762905
15 UPP BOON KENG RD,1.315873249,103.8712962
35 TEBAN GDNS RD,1.31955256,103.7426448
269 YISHUN ST 22,1.437125378,103.840329
185A RIVERVALE CRES,1.393322372,103.9071162
80A LOR 4 TOA PAYOH,1.335291574,103.8492471
611 JURONG WEST ST 65,1.338906189,103.7007513
637 VEERASAMY RD,1.30702756,103.8555275
283 YISHUN AVE 6,1.439496863,103.839282
207C COMPASSVALE LANE,1.38464244,103.8979522
661 CHOA CHU KANG CRES,1.400828161,103.7505655
130 POTONG PASIR AVE 1,1.334449431,103.8655637
140 JLN BT MERAH,1.278156143,103.8295243
2 BEACH RD,1.390462245,103.9752839
677 WOODLANDS AVE 6,1.439386154,103.8017065
34 TANGLIN HALT RD,1.296808995,103.7983615
682B EDGEDALE PLAINS,1.403411731,103.915952
313 ANG MO KIO AVE 3,1.366649726,103.8501337
18B CIRCUIT RD,1.329181051,103.8882484
440A FERNVALE LINK,1.393188539,103.878692
99 OLD AIRPORT RD,1.308589538,103.8882449
170 YISHUN AVE 7,1.437095581,103.8327775
673A CHOA CHU KANG CRES,1.401014168,103.7475242
443 TAMPINES ST 43,1.358839523,103.9518993
149 TAMPINES ST 12,1.351401992,103.9427273
284 CHOA CHU KANG AVE 3,1.379713803,103.7421342
76 LOR LIMAU,1.325024279,103.8542321
689A WOODLANDS DR 75,1.444386293,103.8079254
442 PASIR RIS DR 6,1.368932887,103.9579517
880A TAMPINES AVE 8,1.352013709,103.9319993
898B WOODLANDS DR 50,1.435143175,103.7952105
668 JLN DAMAI,1.333336283,103.908903
314B PUNGGOL WAY,1.407897787,103.8973708
952 JURONG WEST ST 91,1.342537789,103.6914381
217 PETIR RD,1.374908823,103.7735478
166A PUNGGOL CTRL,1.394448669,103.9155224
445B FERNVALE RD,1.392247162,103.8740951
254 BT BATOK EAST AVE 4,1.349797078,103.7581483
470 TAMPINES ST 44,1.360815279,103.9546403
675 HOUGANG AVE 8,1.371888953,103.8843633
172A EDGEDALE PLAINS,1.39533468,103.9114339
538 UPP CROSS ST,1.285212192,103.8457662
47 MARINE CRES,1.305723545,103.9125305
315A ANCHORVALE RD,1.39194188,103.8890185
772 YISHUN AVE 3,1.423638733,103.83258
125 KIM TIAN RD,1.283634676,103.8281281
603 BEDOK RESERVOIR RD,1.33000184,103.912464
115B YISHUN RING RD,1.433396056,103.8271178
808B CHOA CHU KANG AVE 1,1.375592498,103.7460213
641A PUNGGOL DR,1.398554823,103.9170016
527A PASIR RIS ST 51,1.368422935,103.9475937
848 TAMPINES ST 82,1.352475829,103.9360574
233 PASIR RIS DR 4,1.374103234,103.961991
103 SERANGOON NTH AVE 1,1.37067353,103.8702639
11 CHAI CHEE RD,1.326911375,103.9248839
2 TOH YI DR,1.339174804,103.7753414
633 WOODLANDS RING RD,1.43558818,103.8023676
1 JLN PASAR BARU,1.316787758,103.8982286
613 YISHUN ST 61,1.420066635,103.8352837
245 BT BATOK EAST AVE 5,1.349648127,103.7573328
645 YISHUN ST 61,1.421901781,103.8386056
263 TAMPINES ST 21,1.35330603,103.9511443
327 CLEMENTI AVE 5,1.313983252,103.7665331
519 BEDOK NTH AVE 1,1.330876141,103.9280599
241 BT BATOK EAST AVE 5,1.350895236,103.7545445
181 BISHAN ST 13,1.349138096,103.8528785
33 MARSILING DR,1.443558254,103.7720154
228 YISHUN ST 21,1.435337476,103.837523
201D TAMPINES ST 21,1.352262314,103.9535865
183 JELEBU RD,1.379963836,103.7630483
216 BOON LAY AVE,1.34967447,103.7116805
273 TAMPINES ST 22,1.348687161,103.9504503
419 CANBERRA RD,1.452174784,103.8188278
551 SERANGOON NTH AVE 3,1.372355941,103.8708478
171 BOON LAY DR,1.347070123,103.7078739
250C COMPASSVALE ST,1.392693437,103.8998774
572 ANG MO KIO AVE 3,1.370258361,103.855969
919 HOUGANG AVE 4,1.375998644,103.8841214
106 BT PURMEI RD,1.27298937,103.8256268
119 ALJUNIED AVE 2,1.31920343,103.8863355
807A CHAI CHEE RD,1.327073879,103.9231882
108C MCNAIR RD,1.319844175,103.8594625
673C EDGEFIELD PLAINS,1.407221594,103.9105919
122 BEDOK RESERVOIR RD,1.331978868,103.9106237
946 TAMPINES AVE 4,1.351382637,103.9399948
52 COMMONWEALTH DR,1.30190334,103.7972432
227 JURONG EAST ST 21,1.341820669,103.7360878
152 MEI LING ST,1.293831576,103.8026251
161 TAMPINES ST 12,1.350000848,103.9459783
476B CHOA CHU KANG AVE 5,1.377118235,103.7375586
35 BEDOK STH AVE 2,1.322332207,103.9397662
403 WOODLANDS ST 41,1.430708471,103.7722614
50 SIMS DR,1.316499491,103.8783838
721 BEDOK RESERVOIR RD,1.336292448,103.9261017
605 HOUGANG AVE 4,1.37096742,103.8864969
405 TAMPINES ST 41,1.357809697,103.9449177
173B PUNGGOL FIELD,1.396550267,103.910063
25 CHAI CHEE RD,1.323762901,103.9241556
219 CHOA CHU KANG CTRL,1.382515248,103.7453669
854 YISHUN RING RD,1.416596919,103.8374029
20 UPP BOON KENG RD,1.314024727,103.8740064
692 JURONG WEST CTRL 1,1.342271841,103.706612
636C SENJA RD,1.387434546,103.7591186
301 CLEMENTI AVE 4,1.322176495,103.7649121
217 PASIR RIS ST 21,1.369300799,103.9610236
860 JURONG WEST ST 81,1.348848985,103.6967725
623 BT BATOK CTRL,1.350831589,103.7493725
425 CANBERRA RD,1.454378673,103.8186781
32 TELOK BLANGAH RISE,1.273131053,103.8216629
321 SEMBAWANG CL,1.44608015,103.8185241
273A PUNGGOL PL,1.402284312,103.9021043
128 PASIR RIS ST 11,1.366072002,103.9556142
419 SERANGOON CTRL,1.34920192,103.8758597
762 WOODLANDS AVE 6,1.446027317,103.796072
6 BEACH RD,1.303992317,103.8644193
39 TELOK BLANGAH RISE,1.271747245,103.8225083
27A JLN MEMBINA,1.282218691,103.8245363
561 HOUGANG ST 51,1.380380018,103.8891877
720 WOODLANDS AVE 6,1.442210105,103.8010333
273C COMPASSVALE LINK,1.384606791,103.8945019
328 ANG MO KIO AVE 3,1.366617937,103.8478669
18 REDHILL CL,1.28583132,103.8178311
112 BT PURMEI RD,1.274469784,103.8258781
776 YISHUN AVE 2,1.422559348,103.8339441
103 POTONG PASIR AVE 1,1.334113387,103.8695237
262C COMPASSVALE ST,1.394570342,103.8951053
78 LOR LIMAU,1.324876178,103.855541
534 PASIR RIS DR 1,1.370397646,103.9508603
220 BOON LAY AVE,1.350073731,103.7124212
241 TAMPINES ST 21,1.354615167,103.9471166
421 CANBERRA RD,1.452990614,103.8185328
110 YISHUN RING RD,1.433760579,103.8289934
239 SERANGOON AVE 2,1.353191033,103.8686918
819 YISHUN ST 81,1.412530854,103.8342279
201D PUNGGOL FIELD,1.399684321,103.9033781
130 CLARENCE LANE,1.292721267,103.8148357
127C KIM TIAN RD,1.281522804,103.8300358
152 YUNG HO RD,1.327076707,103.7207086
265D COMPASSVALE BOW,1.381957534,103.8964311
508C WELLINGTON CIRCLE,1.452882396,103.8214319
29 MARINE CRES,1.302849836,103.9131972
508 CHOA CHU KANG ST 51,1.388366024,103.7416431
209A PUNGGOL PL,1.399730675,103.9007321
333A YISHUN ST 31,1.431939551,103.8449871
76 BEDOK NTH RD,1.328296665,103.9420675
326 TAMPINES ST 32,1.352628551,103.9586445
524 JURONG WEST ST 52,1.347197626,103.7172467
485B CHOA CHU KANG AVE 5,1.374299366,103.7388073
616 BEDOK RESERVOIR RD,1.331827132,103.914991
436B FERNVALE RD,1.39287836,103.8769757
504D YISHUN ST 51,1.418333625,103.8437217
546 BEDOK NTH ST 3,1.330820059,103.9255958
177 TOA PAYOH CTRL,1.333900341,103.8488548
451 SIN MING AVE,1.358510909,103.830067
966 JURONG WEST ST 93,1.34170246,103.692917
507A WELLINGTON CIRCLE,1.452730801,103.8239669
665C PUNGGOL DR,1.401491646,103.9144591
736 TAMPINES ST 72,1.359041598,103.9343834
144 SIMEI ST 2,1.345351297,103.9555703
206 BISHAN ST 23,1.355681274,103.8478083
152 PASIR RIS ST 13,1.363741375,103.962248
111 HOUGANG AVE 1,1.354985765,103.8885575
429 WOODLANDS ST 41,1.426616849,103.7729486
653C JURONG WEST ST 61,1.335425627,103.6969347
234 HOUGANG AVE 1,1.358195574,103.8887835
273B JURONG WEST AVE 3,1.351556337,103.7036275
71 BEDOK STH RD,1.320416017,103.9427323
214 YISHUN ST 21,1.431446165,103.8363189
684B CHOA CHU KANG CRES,1.403899578,103.7472363
69 REDHILL CL,1.287016529,103.8163748
112 SIMEI ST 1,1.343109584,103.9495596
205 BEDOK NTH ST 1,1.325926754,103.9308081
570C WOODLANDS AVE 1,1.431472774,103.7899819
689 HOUGANG ST 61,1.376492074,103.8857719
488 ADMIRALTY LINK,1.45507804,103.8164529
453C FERNVALE RD,1.393532593,103.8750299
658 JLN TENAGA,1.333552404,103.9065169
716 BEDOK RESERVOIR RD,1.337837952,103.9249737
372 BT BATOK ST 31,1.358669167,103.7512137
142 PASIR RIS ST 11,1.363452585,103.9589017
532 SERANGOON NTH AVE 4,1.374868826,103.8741268
134 BISHAN ST 12,1.345411048,103.8520798
701 TAMPINES ST 71,1.356171829,103.9367989
30 TANGLIN HALT RD,1.299106097,103.7995619
112 HOUGANG AVE 1,1.354421811,103.8885578
899A WOODLANDS DR 50,1.435805048,103.795254
707 YISHUN AVE 5,1.428934889,103.8277162
435 HOUGANG AVE 8,1.377528001,103.8936032
282A SENGKANG EAST AVE,1.385289778,103.8919074
138 TAMPINES ST 11,1.345504506,103.9455884
301 SHUNFU RD,1.349357372,103.8383273
441 FAJAR RD,1.383222191,103.7708369
309 CLEMENTI AVE 4,1.320919814,103.7663776
830 YISHUN ST 81,1.414238374,103.8339538
341 WOODLANDS AVE 1,1.431531072,103.7811204
822 TAMPINES ST 81,1.348342344,103.9343798
559 JURONG WEST ST 42,1.354576317,103.7189006
686C WOODLANDS DR 73,1.442144832,103.80687
941 TAMPINES AVE 5,1.349435712,103.9407348
216 PETIR RD,1.374637466,103.7746643
103A DEPOT RD,1.280701976,103.8133534
501 TAMPINES CTRL 1,1.355682333,103.9444485
320 CLEMENTI AVE 4,1.316901344,103.7653107
102 SIMEI ST 1,1.34134725,103.9513551
253 KIM KEAT AVE,1.331121949,103.8577798
41 CHAI CHEE ST,1.327361556,103.9261194
274D PUNGGOL PL,1.403033709,103.9016885
236 HOUGANG AVE 1,1.357823775,103.8889397
744 WOODLANDS CIRCLE,1.442834284,103.795937
690C CHOA CHU KANG CRES,1.402648913,103.7519318
196C PUNGGOL FIELD,1.399279585,103.9074976
781 PASIR RIS ST 71,1.373863311,103.9385746
43 BENDEMEER RD,1.321124993,103.8658333
171A EDGEDALE PLAINS,1.394630782,103.9122939
149 MEI LING ST,1.294799758,103.8046091
211 NEW UPP CHANGI RD,1.325500845,103.9319676
714 TAMPINES ST 71,1.360051901,103.9371429
450D TAMPINES ST 42,1.357135364,103.9528738
909 HOUGANG ST 91,1.378448286,103.8828569
141 PETIR RD,1.375871562,103.7681357
129 KIM TIAN RD,1.281153031,103.8288562
555 ANG MO KIO AVE 10,1.371196664,103.857024
253 JURONG EAST ST 24,1.343188358,103.7367858
276 BANGKIT RD,1.376222879,103.7757003
235 BT BATOK EAST AVE 5,1.348483521,103.7563004
118 ANG MO KIO AVE 4,1.373295936,103.8354757
421 CHOA CHU KANG AVE 4,1.381778969,103.7407475
777 PASIR RIS ST 71,1.375036114,103.9373128
613 CHOA CHU KANG ST 62,1.400639248,103.7444058
222A SUMANG LANE,1.401125664,103.8934764
266 BISHAN ST 24,1.357930021,103.8420881
632 WOODLANDS RING RD,1.435804243,103.8018417
233 BT BATOK EAST AVE 5,1.348825265,103.7551276
140 TAMPINES ST 12,1.347731912,103.944124
436 CHOA CHU KANG AVE 4,1.38457388,103.7403688
682C WOODLANDS DR 73,1.440755494,103.8042641
27 JLN BAHAGIA,1.326021022,103.858992
491F TAMPINES ST 45,1.362962532,103.9549554
965 JURONG WEST ST 93,1.341341818,103.6924912
405 PASIR RIS DR 6,1.373622502,103.9559322
672B EDGEFIELD PLAINS,1.40665275,103.9123125
844 YISHUN ST 81,1.415625173,103.8354465
736 YISHUN ST 72,1.428658386,103.8317276
315 WOODLANDS ST 31,1.431476406,103.7758462
760 PASIR RIS ST 71,1.376400203,103.9335398
357 WOODLANDS AVE 5,1.433145228,103.7844341
350 UBI AVE 1,1.325804085,103.9012924
151 YUNG HO RD,1.32676126,103.7212885
16 JOO SENG RD,1.336477172,103.8803459
671A KLANG LANE,1.308820696,103.8520653
147 SIMEI ST 2,1.345529247,103.9558303
819 JURONG WEST ST 81,1.345783937,103.6949862
407 TAMPINES ST 41,1.358196018,103.9450157
203 JURONG EAST ST 21,1.336833891,103.7425445
866 TAMPINES ST 83,1.354250612,103.9344769
460 SEGAR RD,1.387251466,103.7720835
415 PANDAN GDNS,1.320765433,103.7482586
223 TAMPINES ST 24,1.355384475,103.9532045
121 YUAN CHING RD,1.335704025,103.7240782
567 CHOA CHU KANG ST 52,1.395132136,103.7458753
258 BT BATOK EAST AVE 4,1.35127412,103.7588715
157 ANG MO KIO AVE 4,1.375305621,103.8393951
853 HOUGANG CTRL,1.369283267,103.8940711
114 TAMPINES ST 11,1.345971625,103.94676
305 SHUNFU RD,1.350115061,103.8387276
813 JELLICOE RD,1.307297672,103.8621106
351 BT BATOK ST 34,1.361877855,103.7494555
808D CHOA CHU KANG AVE 1,1.374884453,103.745409
356C ADMIRALTY DR,1.449252211,103.8177946
325 ANG MO KIO AVE 3,1.36789987,103.8468874
463 HOUGANG AVE 10,1.372356451,103.8949681
116B RIVERVALE DR,1.382059915,103.9023554
239 HOUGANG ST 22,1.355973091,103.8904781
652 WOODLANDS RING RD,1.43799069,103.7999869
456 YISHUN ST 41,1.420369191,103.8444037
123 PENDING RD,1.377566635,103.7706606
206 YISHUN ST 21,1.43124009,103.8367841
186 PASIR RIS ST 11,1.365130641,103.9594331
762 BEDOK RESERVOIR VIEW,1.33621989,103.9343276
8B UPP BOON KENG RD,1.312344472,103.8698983
114 HO CHING RD,1.333789443,103.7241113
924 TAMPINES ST 91,1.346791006,103.940777
452 FAJAR RD,1.38552054,103.7721187
726 WOODLANDS CIRCLE,1.444276562,103.7996814
221 LOR 8 TOA PAYOH,1.342621808,103.8569718
343 ANG MO KIO AVE 3,1.368374748,103.8491511
584 WOODLANDS DR 16,1.429557314,103.7948078
142 BT BATOK ST 11,1.35000418,103.7428608
256 SIMEI ST 1,1.343041576,103.9517634
662A JURONG WEST ST 64,1.336885783,103.7027397
926 YISHUN CTRL 1,1.427899348,103.8379085
144 BT BATOK WEST AVE 6,1.350043387,103.7442374
815B CHOA CHU KANG AVE 7,1.376846261,103.7473768
416 HOUGANG AVE 10,1.375685703,103.8962838
440B FERNVALE LINK,1.393290629,103.878139
126 SERANGOON NTH AVE 1,1.366058217,103.8718749
487C TAMPINES ST 45,1.360758204,103.9578842
615 YISHUN RING RD,1.419613451,103.8354763
257 BT BATOK EAST AVE 4,1.351170884,103.7579849
412 YISHUN RING RD,1.425531445,103.8469619
325 TAMPINES ST 32,1.352628876,103.9590865
141 BISHAN ST 12,1.345153984,103.8533671
45 SIMS DR,1.317337215,103.8784427
509 ANG MO KIO AVE 8,1.374000865,103.8501398
174B EDGEDALE PLAINS,1.396731877,103.9108129
241 JURONG EAST ST 24,1.341481293,103.7429734
90 BEDOK NTH ST 4,1.332149272,103.9404499
262D COMPASSVALE ST,1.394240375,103.8949716
110 BT PURMEI RD,1.273804157,103.8270577
119 BT BATOK WEST AVE 6,1.350421977,103.7468036
764 YISHUN ST 72,1.425365719,103.8339814
427 CHOA CHU KANG AVE 4,1.380884194,103.7397635
178D RIVERVALE CRES,1.389040794,103.9107188
704 WOODLANDS DR 40,1.440580613,103.796236
322A JURONG EAST ST 31,1.347670587,103.7289311
134 LOR AH SOO,1.350464683,103.8865094
242 KIM KEAT LINK,1.32985846,103.8558214
226 BT BATOK CTRL,1.348733378,103.7531743
316A PUNGGOL WAY,1.408901659,103.8984078
715 WOODLANDS DR 70,1.441989581,103.7993937
131 BEDOK RESERVOIR RD,1.333122056,103.9117112
1 JLN BT MERAH,1.286471486,103.8082751
232 SIMEI ST 4,1.344212748,103.9571568
412 TAMPINES ST 41,1.359425154,103.9462705
184 PASIR RIS ST 11,1.365232514,103.9602833
433 CLEMENTI AVE 3,1.314016223,103.7618274
402 FAJAR RD,1.380312263,103.7680736
102 TAMPINES ST 11,1.346716163,103.9455214
167C PUNGGOL EAST,1.394388962,103.9147524
656 SENJA RD,1.387611344,103.7645887
134 TECK WHYE LANE,1.380266095,103.7509568
60 STRATHMORE AVE,1.293085872,103.8118849
72 CIRCUIT RD,1.324547611,103.8879439
855 TAMPINES ST 83,1.3535825,103.9352995
120D CANBERRA CRES,1.446767072,103.8322942
301 SERANGOON AVE 2,1.353092239,103.8679178
151 YISHUN ST 11,1.430806337,103.8342681
103 BT BATOK CTRL,1.348223682,103.7480345
49 WHAMPOA STH,1.324487374,103.8663682
663 BUFFALO RD,1.305680317,103.8508577
69 LOR 4 TOA PAYOH,1.334180885,103.8527069
23 TELOK BLANGAH CRES,1.276080724,103.8208395
322 BT BATOK ST 33,1.361667384,103.747725
402 TAMPINES ST 41,1.357316262,103.9455031
291E BT BATOK ST 24,1.343453413,103.7547883
306 CLEMENTI AVE 4,1.321438261,103.7659013
1D CANTONMENT RD,1.276920243,103.8414858
350 ANG MO KIO ST 32,1.363713118,103.8500442
119 BISHAN ST 12,1.347349574,103.8505352
662 BUFFALO RD,1.306170975,103.8501065
293B COMPASSVALE CRES,1.396991936,103.8959953
402 JURONG WEST ST 42,1.35339366,103.7224457
180C RIVERVALE CRES,1.389491502,103.9096604
242 SIMEI ST 5,1.343158904,103.9541881
916 HOUGANG AVE 9,1.374912942,103.8842937
103 JLN RAJAH,1.327341433,103.8527807
82 REDHILL LANE,1.287415991,103.8194748
136 PETIR RD,1.374610561,103.7687536
106 ANG MO KIO AVE 4,1.371933703,103.8374861
409 SEMBAWANG DR,1.453033211,103.8176507
92 BEDOK NTH AVE 4,1.332444149,103.941298
302B PUNGGOL PL,1.404374931,103.904784
129 YISHUN ST 11,1.433711667,103.831815
232 BT BATOK EAST AVE 5,1.349336089,103.7549418
54 MARINE TER,1.305302291,103.915014
656 JLN TENAGA,1.333706038,103.907541
323 WOODLANDS ST 32,1.431172749,103.7791132
335 KANG CHING RD,1.339042682,103.7231462
408 BT BATOK WEST AVE 4,1.364819778,103.7449898
329 WOODLANDS ST 32,1.430361279,103.7788034
442 SIN MING AVE,1.359235757,103.8323688
217B COMPASSVALE DR,1.389280336,103.8943456
518A TAMPINES CTRL 7,1.356371924,103.9383845
124 BEDOK RESERVOIR RD,1.332625423,103.9101609
602 CLEMENTI WEST ST 1,1.3051044,103.7663119
412 EUNOS RD 5,1.318315638,103.8990247
110 SPOTTISWOODE PK RD,1.273638234,103.8364203
675 CHOA CHU KANG CRES,1.401346557,103.7459906
746 WOODLANDS CIRCLE,1.442507136,103.7953046
12 JLN BT MERAH,1.287531165,103.8070202
414 COMMONWEALTH AVE WEST,1.311581073,103.771625
273D PUNGGOL PL,1.402523182,103.9012959
980D BUANGKOK CRES,1.380493247,103.8809405
279A SENGKANG EAST AVE,1.385774661,103.8930657
268 TOH GUAN RD,1.341866529,103.7450352
780D WOODLANDS CRES,1.448119959,103.8019458
237 CHOA CHU KANG CTRL,1.379447503,103.7482874
614 YISHUN ST 61,1.419829067,103.8360325
107B CANBERRA ST,1.449165163,103.8334973
272 BANGKIT RD,1.377573173,103.7744621
550 JURONG WEST ST 42,1.352804913,103.7167405
723 CLEMENTI WEST ST 2,1.30310124,103.7634131
178 YUNG SHENG RD,1.333236534,103.7208424
172 BOON LAY DR,1.346850523,103.7080456
807 KING GEORGE'S AVE,1.309288369,103.8614425
491 JURONG WEST AVE 1,1.349586566,103.7263153
209 SERANGOON CTRL,1.354448911,103.8742621
171B EDGEDALE PLAINS,1.394977318,103.9127175
338B KANG CHING RD,1.338139429,103.7219138
183D BOON LAY AVE,1.349092894,103.7090415
547 ANG MO KIO AVE 10,1.374209517,103.8582097
850 YISHUN ST 81,1.416030951,103.8362391
357 YISHUN RING RD,1.425907664,103.8459948
801B KEAT HONG CL,1.375824719,103.7428234
852 TAMPINES ST 82,1.352703789,103.9364485
293 PUNGGOL CTRL,1.403075573,103.9049453
782C WOODLANDS CRES,1.447684223,103.8034604
467 PASIR RIS DR 6,1.373485771,103.9567606
10C BEDOK STH AVE 2,1.322094236,103.9362236
454 JURONG WEST ST 42,1.350928569,103.7175979
660 HOUGANG AVE 8,1.373653601,103.8828669
337 CLEMENTI AVE 2,1.316055677,103.7691127
107 RIVERVALE WALK,1.383005013,103.9002725
722 CLEMENTI WEST ST 2,1.302913593,103.7637596
564 CHOA CHU KANG ST 52,1.395405265,103.7454229
97 WHAMPOA DR,1.321280209,103.8549381
616 ANG MO KIO AVE 4,1.37746747,103.8387767
170 BT BATOK WEST AVE 8,1.34655585,103.7401015
631 BEDOK RESERVOIR RD,1.332959236,103.9149418
158 PASIR RIS ST 13,1.364674718,103.9622363
337A TAH CHING RD,1.337699664,103.7227903
406 SEMBAWANG DR,1.452929805,103.8169776
265 TOH GUAN RD,1.340708117,103.7447023
353 CHOA CHU KANG CTRL,1.382137071,103.7433975
85 COMMONWEALTH CL,1.304074953,103.7993317
677C JURONG WEST ST 64,1.345352692,103.70496
528C PASIR RIS ST 51,1.370985309,103.9482169
601A PUNGGOL CTRL,1.402468466,103.9075822
748 YISHUN ST 72,1.427518982,103.8334505
169A PUNGGOL FIELD,1.393082747,103.9142822
238 BISHAN ST 22,1.359760803,103.8446426
64 COMMONWEALTH DR,1.299309998,103.7972346
130 BT BATOK WEST AVE 6,1.35106126,103.7458574
4 MARINE TER,1.305096421,103.9177337
535 SERANGOON NTH AVE 4,1.373806031,103.8739802
191 PUNGGOL CTRL,1.399512505,103.9097527
221 BT BATOK EAST AVE 3,1.347475624,103.753691
13 EUNOS CRES,1.322686619,103.9035009
121 KIM TIAN PL,1.282702702,103.8284912
44 LOR 5 TOA PAYOH,1.336231496,103.8540431
155 GANGSA RD,1.37531521,103.7650289
202A COMPASSVALE DR,1.388359852,103.8931432
302C ANCHORVALE LINK,1.388079615,103.8901531
649 JLN TENAGA,1.332371996,103.9061174
240 PASIR RIS ST 21,1.373368723,103.962797
416 PANDAN GDNS,1.32102611,103.7483131
28A DOVER CRES,1.304915957,103.7821881
834 YISHUN ST 81,1.41508807,103.8339995
113 RIVERVALE WALK,1.383827437,103.9016837
496C TAMPINES ST 43,1.362152445,103.950374
212C COMPASSVALE DR,1.385993169,103.9010207
207D COMPASSVALE LANE,1.384309487,103.8976295
232 HOUGANG AVE 1,1.358547028,103.8885239
296A CHOA CHU KANG AVE 2,1.377141549,103.7409433
25A JLN MEMBINA,1.283466373,103.8261834
893A TAMPINES AVE 8,1.34823505,103.9306802
186 TOA PAYOH CTRL,1.332653953,103.8502116
688B CHOA CHU KANG DR,1.403435938,103.7503369
355 HOUGANG AVE 7,1.37187581,103.8982395
468 TAMPINES ST 44,1.360334442,103.955179
646 HOUGANG AVE 8,1.371839884,103.8807395
546C SEGAR RD,1.388992571,103.7695007
113 ANG MO KIO AVE 4,1.371785181,103.8359657
437 FAJAR RD,1.382509573,103.7695481
714 CLEMENTI WEST ST 2,1.304303413,103.7616821
248 CHOA CHU KANG AVE 2,1.379004596,103.745926
109B EDGEDALE PLAINS,1.394956962,103.9096342
129 POTONG PASIR AVE 1,1.334761505,103.8655426
534 WOODLANDS DR 14,1.430611865,103.7916741
811 JURONG WEST ST 81,1.346334199,103.6965312
485A CHOA CHU KANG AVE 5,1.374618108,103.738365
1G CANTONMENT RD,1.275532291,103.8412746
981C BUANGKOK CRES,1.380448016,103.8795793
563 CHOA CHU KANG ST 52,1.395669184,103.7457261
633B PUNGGOL DR,1.40122179,103.913397
157D RIVERVALE CRES,1.388086614,103.9078891
230C TAMPINES ST 24,1.355427534,103.9514472
313D ANCHORVALE RD,1.392150619,103.8875632
165 STIRLING RD,1.290764057,103.8019164
4A BOON TIONG RD,1.286673707,103.8324817
149 PASIR RIS ST 13,1.361550354,103.9620085
980 JURONG WEST ST 93,1.339117748,103.6936715
111 LOR 1 TOA PAYOH,1.341219557,103.8454928
268 YISHUN ST 22,1.437217697,103.8395063
568 HOUGANG ST 51,1.378091904,103.88899
82 STRATHMORE AVE,1.294545259,103.8087511
118 BT BATOK WEST AVE 6,1.350009516,103.7464996
121 TECK WHYE LANE,1.378303571,103.7501081
505 SERANGOON NTH AVE 4,1.373244635,103.8763016
463A SEMBAWANG DR,1.455598437,103.8140452
212 PETIR RD,1.374503146,103.7757604
467 ADMIRALTY DR,1.452226677,103.8144259
61 MARINE DR,1.303093486,103.9087515
581 PASIR RIS ST 53,1.374941728,103.9466191
227 SIMEI ST 4,1.342020912,103.9562401
21 BALAM RD,1.331197214,103.8869767
163 GANGSA RD,1.376263241,103.764451
164 SIMEI RD,1.346073025,103.9584323
720 BEDOK RESERVOIR RD,1.335972774,103.924883
307B ANG MO KIO AVE 1,1.36583937,103.8446308
203B COMPASSVALE RD,1.386899098,103.8947717
666 JLN DAMAI,1.333565436,103.9081025
134 GEYLANG EAST AVE 1,1.315993889,103.886009
6 JLN BATU,1.336016293,103.7878949
664 YISHUN AVE 4,1.420199866,103.8410746
241 HOUGANG ST 22,1.356508688,103.8918406
295B COMPASSVALE CRES,1.397981097,103.9000725
624 SENJA RD,1.386243403,103.7618376
103 BEDOK RESERVOIR RD,1.328770222,103.9093814
218 TAMPINES ST 24,1.354435501,103.9522862
256B SUMANG WALK,1.406049079,103.8961795
112 HO CHING RD,1.333885581,103.7236884
349 JURONG EAST AVE 1,1.34446375,103.7314458
371 JURONG EAST ST 32,1.348308359,103.7319199
39 UPP BOON KENG RD,1.318723581,103.8742265
119B CANBERRA CRES,1.446370139,103.8315749
670A CHOA CHU KANG CRES,1.402678963,103.7475625
195D PUNGGOL RD,1.401367945,103.907096
458 PASIR RIS DR 4,1.371414883,103.9596374
332 HOUGANG AVE 5,1.368405832,103.8978204
372 HOUGANG ST 31,1.362990379,103.8904639
401 CHOA CHU KANG AVE 3,1.379692642,103.7397607
43 CAMBRIDGE RD,1.315363027,103.8494345
110 MCNAIR RD,1.322079197,103.8590791
1 TECK WHYE AVE,1.382538829,103.7517109
405 ANG MO KIO AVE 10,1.361579127,103.8538054
328 CLEMENTI AVE 2,1.313991615,103.767089
892B WOODLANDS DR 50,1.437589618,103.7896736
155 BISHAN ST 13,1.346227092,103.8559056
249 HOUGANG AVE 3,1.359612146,103.8919082
671A YISHUN AVE 4,1.41897568,103.8423334
333C ANCHORVALE LINK,1.39441572,103.8917738
249 JURONG EAST ST 24,1.342562424,103.7392597
261 BISHAN ST 22,1.358986893,103.8433244
442 FAJAR RD,1.382251153,103.7712357
3A GEYLANG SERAI,1.317501308,103.8989115
88 TELOK BLANGAH HTS,1.27736919,103.8082549
313 SHUNFU RD,1.351478813,103.8371852
682C JURONG WEST CTRL 1,1.343152907,103.7053946
619 BT PANJANG RING RD,1.385915835,103.7623666
189 PASIR RIS ST 12,1.365589371,103.959037
39 JLN RUMAH TINGGI,1.288633343,103.8100159
458 YISHUN AVE 11,1.420667317,103.8462078
615A EDGEFIELD PLAINS,1.403860564,103.909541
541 JURONG WEST AVE 1,1.351042998,103.715983
514 WEST COAST RD,1.308972504,103.7592329
77 BEDOK NTH RD,1.328696112,103.9419956
50 STRATHMORE AVE,1.293845338,103.8087279
21 BEDOK STH RD,1.320145954,103.9331634
620 BT BATOK CTRL,1.349705366,103.7484032
845 WOODLANDS ST 82,1.442754559,103.7925321
13 REDHILL CL,1.28542199,103.8169452
140 PASIR RIS ST 11,1.363948459,103.959181
271A SENGKANG CTRL,1.385955885,103.8946548
724 TAMPINES ST 71,1.356842294,103.9349512
424 WOODLANDS ST 41,1.427287309,103.7748594
375 HOUGANG ST 31,1.363158279,103.8895552
201 CHOA CHU KANG AVE 1,1.382138093,103.7495422
352 BT BATOK ST 34,1.361597982,103.7494607
124B BT MERAH VIEW,1.285282206,103.823095
442 HOUGANG AVE 8,1.379251899,103.893162
656C JURONG WEST ST 61,1.335989551,103.6999742
509 SERANGOON NTH AVE 4,1.371895191,103.8762521
289A BT BATOK ST 25,1.344489809,103.7605172
467A ADMIRALTY DR,1.452010334,103.813929
141 SIMEI ST 2,1.345851355,103.9550698
263 BOON LAY DR,1.345100452,103.7069117
550 ANG MO KIO AVE 10,1.373607695,103.8582049
730 JURONG WEST ST 72,1.346108864,103.698427
501 JURONG WEST ST 51,1.350384137,103.7190256
120 ANG MO KIO AVE 3,1.370047397,103.8445948
314 WOODLANDS ST 31,1.431190724,103.7760741
625 BT BATOK CTRL,1.351381128,103.7485853
423 BEDOK NTH AVE 1,1.327976141,103.9275651
113 HOUGANG AVE 1,1.353569053,103.8887057
886A WOODLANDS DR 50,1.438291516,103.7946129
112 MCNAIR RD,1.321013495,103.8589824
592C MONTREAL LINK,1.450939321,103.8280705
259 BT BATOK EAST AVE 4,1.350858597,103.7597611
115 BISHAN ST 12,1.347918389,103.8487501
179 BT BATOK WEST AVE 8,1.345812286,103.7422102
288B BT BATOK ST 25,1.346006231,103.7605059
109A DEPOT RD,1.280957713,103.8094402
512 HOUGANG AVE 10,1.371273153,103.8886196
354 ANG MO KIO ST 32,1.363877525,103.8520286
876 TAMPINES ST 84,1.353075377,103.9313181
224 PASIR RIS ST 21,1.370621929,103.9611105
38 TELOK BLANGAH RISE,1.272332606,103.8222103
863 TAMPINES ST 83,1.355459836,103.9356144
528A PASIR RIS ST 51,1.370210669,103.9479865
471A FERNVALE ST,1.396040947,103.8807354
540 ANG MO KIO AVE 10,1.375293768,103.8554524
408 SERANGOON AVE 1,1.347247313,103.873453
116 PENDING RD,1.37717209,103.7686168
144 YISHUN ST 11,1.431023714,103.831365
214 TAMPINES ST 23,1.354662452,103.9535298
123 BEDOK NTH ST 2,1.329198687,103.9373433
358 YISHUN RING RD,1.426851971,103.8459661
19 HOUGANG AVE 3,1.363789616,103.8918133
130 BT MERAH VIEW,1.284587128,103.8243603
949 JURONG WEST ST 91,1.343329662,103.6916785
463C SEMBAWANG DR,1.456235091,103.8142922
229 YISHUN ST 21,1.434912007,103.8372004
257 PASIR RIS ST 21,1.367059707,103.9636979
376A HOUGANG ST 32,1.363460098,103.8935763
834 HOUGANG CTRL,1.369878403,103.8898597
223C COMPASSVALE WALK,1.388712682,103.8977562
131 CASHEW RD,1.37457987,103.7708718
260 BISHAN ST 22,1.359613768,103.8421874
181 YUNG SHENG RD,1.333692066,103.7219349
928 JURONG WEST ST 92,1.340919078,103.6892449
860 YISHUN AVE 4,1.417822583,103.8398545
555 CHOA CHU KANG NTH 6,1.39628678,103.7436784
101 SIMEI ST 1,1.340849911,103.9514337
518 PASIR RIS ST 52,1.37438915,103.9446033
556 PASIR RIS ST 51,1.367565854,103.9519029
49 TEBAN GDNS RD,1.320989284,103.7381807
288 BISHAN ST 24,1.356939028,103.845176
504D MONTREAL DR,1.450458438,103.823881
101 HOUGANG AVE 1,1.354937478,103.8913606
605 CHOA CHU KANG ST 62,1.398106117,103.7435559
802A KEAT HONG CL,1.374515842,103.7434743
452 CHOA CHU KANG AVE 4,1.380311304,103.735332
110 ANG MO KIO AVE 4,1.37045937,103.8374193
440C FERNVALE LINK,1.392542518,103.878161
290G BT BATOK ST 24,1.343377778,103.7571747
221 ANG MO KIO AVE 1,1.366379383,103.8394823
105 SERANGOON NTH AVE 1,1.370247459,103.870226
256 BISHAN ST 22,1.361318448,103.8426838
108 JLN RAJAH,1.328389357,103.8557509
932 JURONG WEST ST 92,1.341752015,103.6886642
307 TAMPINES ST 32,1.35297508,103.9563536
43 CHAI CHEE ST,1.328346685,103.9256548
914 HOUGANG ST 91,1.377531604,103.8840186
507 PASIR RIS ST 52,1.376626807,103.9445889
634 PASIR RIS DR 1,1.377579269,103.9406596
503 JELAPANG RD,1.384184146,103.7664346
664 CHOA CHU KANG CRES,1.402296185,103.7504385
625B WOODLANDS DR 52,1.43341655,103.8000127
274 BANGKIT RD,1.377156192,103.774823
302B ANCHORVALE LINK,1.387862243,103.8907051
167D SIMEI LANE,1.342873687,103.9592051
618 YISHUN RING RD,1.418735301,103.8357033
403A FERNVALE LANE,1.388930609,103.8732086
271 TOH GUAN RD,1.341681996,103.7462455
225C COMPASSVALE WALK,1.388353528,103.8988383
984D BUANGKOK LINK,1.382373758,103.8809546
125 SERANGOON NTH AVE 1,1.366450633,103.8721108
9 JLN KUKOH,1.287674258,103.8388579
661B JURONG WEST ST 64,1.335993391,103.7056175
321 BT BATOK ST 33,1.361316993,103.7477412
354 KANG CHING RD,1.339157885,103.7209314
62 LOR 4 TOA PAYOH,1.336301401,103.8514884
236 PASIR RIS ST 21,1.374470337,103.9625802
716 CLEMENTI WEST ST 2,1.302409531,103.7628048
719 TAMPINES ST 72,1.358812401,103.9359132
227 CHOA CHU KANG CTRL,1.381182497,103.7459662
617 WOODLANDS AVE 4,1.43389741,103.7957309
437 CHOA CHU KANG AVE 4,1.384109801,103.7406455
438 ANG MO KIO AVE 10,1.366970817,103.8539066
210 PETIR RD,1.374190776,103.7762562
123D RIVERVALE DR,1.386844965,103.9021921
643 WOODLANDS RING RD,1.437696282,103.8015689
338 HOUGANG AVE 7,1.369745688,103.898841
820 TAMPINES ST 81,1.347929653,103.9361199
525 JELAPANG RD,1.386592759,103.7654066
490D CHOA CHU KANG AVE 5,1.376028692,103.7413682
26C JLN MEMBINA,1.282757974,103.8252056
392 TAMPINES AVE 7,1.355192673,103.9574738
873 WOODLANDS ST 81,1.443295229,103.7897468
170 BEDOK STH RD,1.320720112,103.9461111
212 TAMPINES ST 23,1.354434163,103.9544048
203C COMPASSVALE RD,1.386812007,103.8952834
237 BT PANJANG RING RD,1.378567561,103.7706474
636A YISHUN ST 61,1.419542929,103.8396727
624 ANG MO KIO AVE 4,1.381561712,103.8400023
640 ROWELL RD,1.307435479,103.8547139
439 JURONG WEST AVE 1,1.351497687,103.7232438
522 BEDOK NTH AVE 1,1.330663029,103.9269804
288G BT BATOK ST 25,1.345013481,103.7595968
878B TAMPINES AVE 8,1.350926367,103.9291912
826 WOODLANDS ST 81,1.439223598,103.7895095
125 TAMPINES ST 11,1.346314203,103.9501253
505B YISHUN ST 51,1.419241611,103.8449417
815A CHOA CHU KANG AVE 7,1.376078467,103.7469031
195 PASIR RIS ST 12,1.366396509,103.960047
571 HOUGANG ST 51,1.378433438,103.8880231
378 CLEMENTI AVE 5,1.317412042,103.767417
12 TOH YI DR,1.338402743,103.7726858
290A COMPASSVALE CRES,1.396078772,103.8967276
132 ANG MO KIO AVE 3,1.371447436,103.8417836
426 HOUGANG AVE 6,1.373647438,103.8930906
833 HOUGANG CTRL,1.370869982,103.8896709
212 CHOA CHU KANG CTRL,1.382469861,103.7473479
138 BEDOK RESERVOIR RD,1.334301111,103.9131658
108 HOUGANG AVE 1,1.352773933,103.8900932
306 SERANGOON AVE 2,1.354170254,103.8668857
43 LOR 5 TOA PAYOH,1.335938753,103.8542882
629 JURONG WEST ST 65,1.342517568,103.6996678
448 PASIR RIS DR 6,1.370585669,103.9581072
161 BT MERAH CTRL,1.283912294,103.8160061
522 JURONG WEST ST 52,1.346453964,103.7166577
461 ANG MO KIO AVE 10,1.367527763,103.8574096
148 BEDOK RESERVOIR RD,1.335340885,103.911905
485 PASIR RIS DR 4,1.374417283,103.9608544
273C PUNGGOL PL,1.402303014,103.9012624
314 SEMBAWANG DR,1.4436987,103.8211922
68 BEDOK STH AVE 3,1.318750888,103.9433639
768 CHOA CHU KANG ST 54,1.394126528,103.7499616
585 WOODLANDS DR 16,1.429205974,103.7954083
808C CHOA CHU KANG AVE 1,1.375031351,103.7461866
317D ANCHORVALE RD,1.393466172,103.8879304
267 TAMPINES ST 21,1.350772788,103.9492592
683A WOODLANDS DR 62,1.440097906,103.8028926
347 KANG CHING RD,1.34050041,103.7202
17 EUNOS CRES,1.323370149,103.9044037
137 PASIR RIS ST 11,1.365158833,103.9572305
533 WOODLANDS DR 14,1.430548515,103.7920721
540 BEDOK NTH ST 3,1.331129729,103.9220926
723 JURONG WEST AVE 5,1.344426968,103.698194
129 RIVERVALE ST,1.389868754,103.902651
80B LOR 4 TOA PAYOH,1.335294011,103.8498882
176D EDGEFIELD PLAINS,1.397942406,103.9094482
646 PASIR RIS DR 10,1.378083197,103.938173
109 BISHAN ST 12,1.346750596,103.8479902
529 ANG MO KIO AVE 10,1.372343582,103.8554554
125 BT BATOK CTRL,1.351534849,103.7471585
34 CASSIA CRES,1.309640784,103.8844718
508 TAMPINES CTRL 1,1.354647683,103.9455493
172 WOODLANDS ST 13,1.433988593,103.7774905
601 CHOA CHU KANG ST 62,1.396933631,103.7449217
511 HOUGANG AVE 10,1.372074206,103.888729
87 BEDOK NTH ST 4,1.332502614,103.9385871
170 ANG MO KIO AVE 4,1.374000718,103.8364315
175 LOR 2 TOA PAYOH,1.333396388,103.8470538
352 ANG MO KIO ST 32,1.364424744,103.850864
13 LOR 7 TOA PAYOH,1.336283329,103.859027
481 SEGAR RD,1.389456481,103.7722259
197A PUNGGOL FIELD,1.399774254,103.9068498
507 BEDOK NTH AVE 3,1.332980717,103.932599
153 BISHAN ST 13,1.346085959,103.8550783
87 DAWSON RD,1.295730427,103.8097599
239 TAMPINES ST 21,1.35477157,103.9465841
262 WATERLOO ST,1.298539163,103.851856
6 REDHILL CL,1.284818245,103.8169614
526A PASIR RIS ST 51,1.367541624,103.9471054
671A JURONG WEST ST 65,1.344046608,103.7023611
95B HENDERSON RD,1.286977039,103.8215588
227C COMPASSVALE DR,1.386802298,103.901133
673B EDGEFIELD PLAINS,1.406977629,103.9110415
304 CANBERRA RD,1.445119207,103.8222596
310 YISHUN RING RD,1.431868736,103.8412423
15 REDHILL CL,1.285884083,103.8171594
222 BISHAN ST 23,1.35803525,103.8482085
886D WOODLANDS DR 50,1.437925558,103.7946196
56 NEW UPP CHANGI RD,1.324993794,103.9410826
457 YISHUN ST 41,1.420404162,103.8455388
356 WOODLANDS AVE 5,1.433275633,103.7849719
583 PASIR RIS ST 53,1.375757771,103.9471064
287D JURONG EAST ST 21,1.337869388,103.7441144
796 WOODLANDS DR 72,1.443195068,103.8030525
970 HOUGANG ST 91,1.37878538,103.880486
905 JURONG WEST ST 91,1.340470467,103.6852343
120B EDGEDALE PLAINS,1.394837781,103.9075847
404A FERNVALE LANE,1.388348217,103.8738149
667 CHOA CHU KANG CRES,1.40258974,103.7496297
570B WOODLANDS AVE 1,1.431063955,103.7904541
221B BEDOK CTRL,1.325000433,103.9344978
433 ANG MO KIO AVE 10,1.368076523,103.854353
415A FERNVALE LINK,1.389045084,103.8794153
528 BT BATOK ST 51,1.356651468,103.7510918
310 TAMPINES ST 32,1.353463207,103.9571131
164 JLN TECK WHYE,1.381159263,103.7563626
724 PASIR RIS ST 72,1.380934399,103.9362347
128 LOR 1 TOA PAYOH,1.337816161,103.8442143
291 BISHAN ST 24,1.35591015,103.8451584
271D JURONG WEST ST 24,1.350035071,103.7049079
984B BUANGKOK LINK,1.382095015,103.8806127
170A PUNGGOL FIELD,1.393560948,103.9148607
2 JLN BT MERAH,1.285706895,103.8080153
501 JELAPANG RD,1.382882267,103.7668471
808C CHAI CHEE RD,1.32789303,103.9238749
647 HOUGANG AVE 8,1.37196976,103.8803846
529 HOUGANG AVE 6,1.375468965,103.8907295
708 YISHUN AVE 5,1.428715494,103.8271691
333B ANCHORVALE LINK,1.39457896,103.8914254
310A ANG MO KIO AVE 1,1.364812552,103.8438442
317 TAMPINES ST 33,1.351538029,103.9568979
686B WOODLANDS DR 73,1.44263057,103.8063127
326 CLEMENTI AVE 5,1.314430816,103.7663583
7 MARSILING DR,1.441669065,103.7767334
11 GHIM MOH RD,1.311067355,103.7893224
274 PASIR RIS ST 21,1.364340022,103.9640289
109 ANG MO KIO AVE 4,1.370096538,103.8376878
431 TAMPINES ST 41,1.35958483,103.9507307
629 PASIR RIS DR 3,1.379006663,103.9405724
254 SIMEI ST 1,1.341866375,103.9520194
474 SEGAR RD,1.38863382,103.7723883
351 ANG MO KIO ST 32,1.364323667,103.8503076
322 HOUGANG AVE 5,1.367098554,103.8969787
95 HAVELOCK RD,1.288475431,103.8328482
271 BT BATOK EAST AVE 4,1.348172638,103.7588931
241 COMPASSVALE WALK,1.389999297,103.8976987
259 BISHAN ST 22,1.359967803,103.8422466
172 BT BATOK WEST AVE 8,1.345669039,103.7404803
230 YISHUN ST 21,1.434576233,103.8366208
662D JURONG WEST ST 64,1.336978387,103.7042794
167A PUNGGOL EAST,1.393908248,103.9151069
284 TAMPINES ST 22,1.349103845,103.9526282
133 YISHUN ST 11,1.432557372,103.8307841
218 CHOA CHU KANG CTRL,1.382837983,103.745842
6 TEBAN GDNS RD,1.321238542,103.7443418
447 JURONG WEST ST 42,1.352481247,103.7203994
315B ANG MO KIO ST 31,1.364027573,103.8474787
656 YISHUN AVE 4,1.422419196,103.8389593
856D TAMPINES ST 82,1.352097285,103.9387394
834 JURONG WEST ST 81,1.343089299,103.6940543
196A PUNGGOL FIELD,1.399203942,103.9067408
57 MARINE TER,1.306512573,103.9154848
35 TANGLIN HALT RD,1.297049718,103.7982277
271B SENGKANG CTRL,1.385455446,103.8944904
987C BUANGKOK GREEN,1.37932815,103.8777892
37 TANGLIN HALT RD,1.297772317,103.7980171
74 COMMONWEALTH DR,1.301274073,103.7964352
665 WOODLANDS RING RD,1.438012808,103.7976719
206A COMPASSVALE LANE,1.386480682,103.8967399
9 SELEGIE RD,1.303460962,103.8507093
230D TAMPINES ST 24,1.356099098,103.9515781
7 TECK WHYE AVE,1.381474449,103.7545215
130 YISHUN ST 11,1.433524981,103.8313308
402 WOODLANDS ST 41,1.431064327,103.7722589
890B TAMPINES AVE 1,1.346905558,103.9334092
446 ANG MO KIO AVE 10,1.367760951,103.8553571
339B KANG CHING RD,1.338180626,103.721189
101 YISHUN AVE 5,1.430535754,103.8276677
552 CHOA CHU KANG ST 52,1.394610617,103.7426638
525C PASIR RIS ST 51,1.369960491,103.9474521
206 TAMPINES ST 21,1.350860056,103.9523524
178 WOODLANDS ST 13,1.434640806,103.77767
262 BISHAN ST 22,1.359250112,103.842624
33 GHIM MOH LINK,1.30977118,103.784714
469C SENGKANG WEST WAY,1.396323537,103.877422
101 AH HOOD RD,1.32739679,103.844481
405 CHOA CHU KANG AVE 3,1.380217546,103.7394533
325 SERANGOON AVE 3,1.35093759,103.868683
768 PASIR RIS ST 71,1.375370676,103.9355177
171 BEDOK STH RD,1.320896768,103.9454287
324D SENGKANG EAST WAY,1.392844389,103.8913469
38 TEBAN GDNS RD,1.321138966,103.7427876
210B COMPASSVALE LANE,1.384522622,103.8997617
320 UBI AVE 1,1.328805271,103.9042805
34 JLN BT HO SWEE,1.288076876,103.8270813
108B MCNAIR RD,1.319981244,103.8590051
662C EDGEDALE PLAINS,1.401391816,103.9185139
129 LOR AH SOO,1.351518498,103.8875775
821 YISHUN ST 81,1.413317909,103.8341439
212B PUNGGOL WALK,1.400404239,103.8994843
610 BEDOK RESERVOIR RD,1.330848791,103.9122149
691B CHOA CHU KANG CRES,1.40162672,103.7515776
80 STRATHMORE AVE,1.294561391,103.8096921
269B PUNGGOL FIELD,1.403443932,103.8986665
538 WOODLANDS DR 16,1.429430697,103.7921472
846 WOODLANDS AVE 4,1.443426738,103.7936128
53 CHAI CHEE ST,1.328462891,103.9199785
506 JURONG WEST ST 52,1.349113013,103.7187648
207 ANG MO KIO AVE 1,1.365820895,103.8428478
253 COMPASSVALE ST,1.393996214,103.9001832
441A CLEMENTI AVE 3,1.314639131,103.7647977
337 WOODLANDS AVE 1,1.430717387,103.7817439
302A ANCHORVALE LINK,1.387563418,103.891211
50 LOR 5 TOA PAYOH,1.337176514,103.8525431
727 CLEMENTI WEST ST 2,1.30413678,103.7638179
652 HOUGANG AVE 8,1.372408043,103.8815982
136 SERANGOON NTH AVE 2,1.368101598,103.8749878
347 WOODLANDS AVE 3,1.433191403,103.7815949
538 PASIR RIS ST 51,1.369589558,103.9502894
523 BT BATOK ST 52,1.35669994,103.7523064
219C BEDOK CTRL,1.324855984,103.9335196
20 MARINE TER,1.303715887,103.915067
25 EUNOS CRES,1.323403316,103.9023757
160 YUNG PING RD,1.329130473,103.7215021
139 BT BATOK WEST AVE 6,1.3511032,103.7441699
139 BEDOK NTH AVE 3,1.329410011,103.9353973
134 BT BATOK WEST AVE 6,1.35159087,103.7445096
8 TG PAGAR PLAZA,1.277272573,103.8429172
531 JURONG WEST ST 52,1.349084238,103.7153429
515C TAMPINES CTRL 7,1.356967802,103.9389865
182 BEDOK NTH RD,1.326869941,103.9418328
805C KEAT HONG CL,1.372687362,103.7436182
213 BEDOK NTH ST 1,1.326352981,103.9326372
539 BEDOK NTH ST 3,1.331313866,103.9253073
101 RIVERVALE WALK,1.382764289,103.899272
422 BEDOK NTH RD,1.328689293,103.9288938
510 WEST COAST DR,1.310822503,103.760806
129 BEDOK RESERVOIR RD,1.334018667,103.9122389
460 CHOA CHU KANG AVE 4,1.377822649,103.7350124
109 PASIR RIS ST 11,1.36846368,103.9560091
621 CHOA CHU KANG ST 62,1.399146409,103.7472052
631 ANG MO KIO AVE 4,1.379557282,103.8407357
914 JURONG WEST ST 91,1.341455371,103.6879703
17 MARINE TER,1.303767822,103.914176
502 BEDOK NTH ST 3,1.331245062,103.9312443
27 DOVER CRES,1.305422783,103.7813204
355A YISHUN RING RD,1.426017176,103.8446546
143 YISHUN RING RD,1.431002594,103.8310938
510 JELAPANG RD,1.387588972,103.7689829
38 JLN RUMAH TINGGI,1.288633659,103.8096439
419 CHOA CHU KANG AVE 4,1.381925769,103.7415605
792 WOODLANDS AVE 6,1.44214857,103.8022986
112 LOR 1 TOA PAYOH,1.341553399,103.8454896
57 TEBAN GDNS RD,1.322542265,103.7375607
501 PASIR RIS ST 52,1.376009045,103.946423
334 KANG CHING RD,1.339404321,103.7229073
118C JLN MEMBINA,1.282169371,103.8263337
487A TAMPINES AVE 9,1.359550703,103.9578141
323A SENGKANG EAST WAY,1.392710078,103.8929995
227 BISHAN ST 23,1.358070547,103.8471381
217 YISHUN ST 21,1.432622676,103.8363187
112A DEPOT RD,1.281476362,103.8081481
313C SUMANG LINK,1.410628851,103.9015519
35 CIRCUIT RD,1.329158997,103.8860103
485D CHOA CHU KANG AVE 5,1.375199146,103.7389661
311 CLEMENTI AVE 4,1.31935456,103.7651093
269A PUNGGOL FIELD,1.403149047,103.8989758
3 JLN BATU,1.391730927,103.7557408
447 HOUGANG AVE 10,1.379522123,103.8947681
101 POTONG PASIR AVE 1,1.333157101,103.8683804
703 YISHUN AVE 5,1.429584898,103.8288511
557 HOUGANG ST 51,1.37994979,103.8904387
95C HENDERSON RD,1.287406406,103.8220532
32 BEDOK STH AVE 2,1.322625781,103.9378158
612D PUNGGOL DR,1.404726526,103.9076236
543 HOUGANG AVE 8,1.37785957,103.8920207
157 WOODLANDS ST 13,1.434376646,103.7747831
12 DOVER CL EAST,1.304992003,103.7858075
705 WOODLANDS DR 40,1.439756112,103.7961572
211 PASIR RIS ST 21,1.367194311,103.9611526
88 REDHILL CL,1.285840812,103.8185963
712 PASIR RIS ST 72,1.382230621,103.9381834
288D JURONG EAST ST 21,1.33972149,103.74409
443B FAJAR RD,1.381017228,103.7695952
272D JURONG WEST ST 24,1.351129349,103.7044448
609 ELIAS RD,1.375487344,103.9427274
509B YISHUN AVE 4,1.41379976,103.8401319
780F WOODLANDS CRES,1.447777265,103.8011484
223 LOR 8 TOA PAYOH,1.341264797,103.8555528
125 HOUGANG AVE 1,1.352409842,103.8864916
356 BT BATOK ST 31,1.361934863,103.7508695
509A YISHUN AVE 4,1.413710707,103.8395282
30 JLN KLINIK,1.287669769,103.8282029
356A ADMIRALTY DR,1.449441345,103.8168524
641 HOUGANG AVE 8,1.371276006,103.8800587
416 WOODLANDS ST 41,1.428369499,103.77376
330 YISHUN RING RD,1.430941645,103.8425748
621 YISHUN RING RD,1.418667011,103.835187
648 ANG MO KIO AVE 5,1.378238594,103.8437197
421 HOUGANG AVE 10,1.375423473,103.8947287
244 SERANGOON AVE 2,1.352495364,103.8687497
306 WOODLANDS ST 31,1.42992992,103.7746366
2C GEYLANG SERAI,1.317501461,103.8982065
287 BT BATOK EAST AVE 3,1.347137632,103.7585272
311 YISHUN RING RD,1.43157507,103.8408153
874 WOODLANDS ST 82,1.442932344,103.7895457
31 MARSILING DR,1.442985955,103.7723427
285 TAMPINES ST 22,1.350010742,103.9528161
123 MARSILING RISE,1.439112423,103.7789491
869 WOODLANDS ST 83,1.442594349,103.7939931
405B FERNVALE LANE,1.389002004,103.8736702
103 BEDOK NTH AVE 4,1.333482588,103.9375425
506 BT BATOK ST 52,1.352248316,103.7546638
31 EUNOS CRES,1.320389363,103.901842
930 TAMPINES ST 91,1.34596292,103.9396148
683C CHOA CHU KANG CRES,1.404678619,103.7463149
505 WEST COAST DR,1.312280541,103.7599815
305 CLEMENTI AVE 4,1.322061089,103.766014
317 SEMBAWANG VISTA,1.445934524,103.8204306
332C ANCHORVALE LINK,1.395002196,103.891961
912 HOUGANG ST 91,1.37849281,103.8840164
122 SENGKANG EAST WAY,1.386551487,103.9067415
838 TAMPINES ST 82,1.350853252,103.9353799
630 ANG MO KIO AVE 4,1.380541389,103.8410683
211 JURONG EAST ST 21,1.338669111,103.7402925
237 LOR 1 TOA PAYOH,1.339773151,103.8522423
229 SERANGOON AVE 4,1.355981994,103.8702771
107A EDGEFIELD PLAINS,1.397198794,103.9068258
626 HOUGANG AVE 8,1.369813241,103.882211
455 HOUGANG AVE 10,1.377482706,103.8954334
894B WOODLANDS DR 50,1.436009439,103.7895075
79 BEDOK NTH RD,1.327691945,103.9407637
4 CHANGI VILLAGE RD,1.389096356,103.9874628
715 CLEMENTI WEST ST 2,1.303153603,103.7619437
56 TEBAN GDNS RD,1.322201642,103.7377517
139 SIMEI ST 1,1.34668351,103.9565613
69 TELOK BLANGAH HTS,1.275583428,103.810314
116 YISHUN RING RD,1.435027502,103.8281349
793 WOODLANDS AVE 6,1.442394113,103.8028495
449 BT PANJANG RING RD,1.384170966,103.772387
152 ANG MO KIO AVE 5,1.376687626,103.8401595
91 DAWSON RD,1.295340411,103.8125852
708 TAMPINES ST 71,1.357992007,103.9368925
16 HOUGANG AVE 3,1.362822217,103.8910466
212 BT BATOK ST 21,1.347192811,103.7522173
352 CLEMENTI AVE 2,1.314278602,103.7713506
253 PASIR RIS ST 21,1.368154476,103.9630744
588A ANG MO KIO ST 52,1.372076889,103.8527861
308B ANCHORVALE RD,1.389930951,103.8865607
222 PENDING RD,1.375213345,103.7740957
842B TAMPINES ST 82,1.35132562,103.9369211
672A YISHUN AVE 4,1.418752672,103.8413886
453 FAJAR RD,1.385414239,103.7716808
88 DAWSON RD,1.29579395,103.8092648
152 WOODLANDS ST 13,1.435067117,103.7742313
445 TAMPINES ST 42,1.358302422,103.9506584
102 ANG MO KIO AVE 3,1.370650092,103.8394103
672A JURONG WEST ST 65,1.343724747,103.7009391
711 HOUGANG AVE 2,1.366338632,103.8877752
308 BT BATOK ST 31,1.358550292,103.7481047
303 HOUGANG AVE 5,1.367970829,103.8947129
226 PENDING RD,1.375236556,103.7723684
758 JURONG WEST ST 74,1.350154946,103.7003472
457 TAMPINES ST 42,1.357866676,103.9536421
121 HOUGANG AVE 1,1.353860593,103.8869365
340A SEMBAWANG CL,1.447533901,103.8178923
677B PUNGGOL DR,1.405364683,103.909509
38 CIRCUIT RD,1.327957357,103.8860804
429 ANG MO KIO AVE 3,1.369089458,103.8534215
526 BT BATOK ST 51,1.357188206,103.7511239
530 JURONG WEST ST 52,1.348532872,103.7154681
555 JURONG WEST ST 42,1.353668605,103.7188531
325 SEMBAWANG CRES,1.444504744,103.818706
615 ANG MO KIO AVE 4,1.377463413,103.8391301
135 MARSILING RD,1.437569562,103.7777638
107 TOWNER RD,1.319795086,103.8604358
356 YISHUN RING RD,1.425310512,103.8454557
625 HOUGANG AVE 8,1.37009813,103.8816713
504 SERANGOON NTH AVE 4,1.373878432,103.8763079
924 HOUGANG AVE 9,1.376295016,103.882146
97 JLN DUA,1.308946249,103.8883889
43 TEBAN GDNS RD,1.321102559,103.741674
159 LOR 1 TOA PAYOH,1.330745429,103.8456012
208 NEW UPP CHANGI RD,1.325699735,103.9310746
531 WOODLANDS DR 14,1.430923426,103.792754
532 JELAPANG RD,1.385021016,103.764558
636 BEDOK RESERVOIR RD,1.33105257,103.904387
796A YISHUN RING RD,1.419356831,103.8330734
840 WOODLANDS ST 82,1.443812821,103.7924011
433 HOUGANG AVE 8,1.37614024,103.8938237
36 JLN RUMAH TINGGI,1.288494662,103.808777
219 BT BATOK ST 21,1.347207298,103.7549997
412 WOODLANDS ST 41,1.428140108,103.7728219
730 YISHUN ST 71,1.427233299,103.831528
122 TECK WHYE LANE,1.378518984,103.7496307
27 TELOK BLANGAH WAY,1.274468661,103.8214741
773 WOODLANDS DR 60,1.447472825,103.7977161
705 JURONG WEST ST 71,1.340912429,103.694651
342 BT BATOK ST 34,1.362583231,103.7485749
20 DOVER CRES,1.306722574,103.7835241
536 ANG MO KIO AVE 10,1.374473785,103.8541005
247 BT BATOK EAST AVE 5,1.349927212,103.7569803
813B YISHUN RING RD,1.417389133,103.8323685
2A WOODLANDS CTR RD,1.440743633,103.7711825
609 CLEMENTI WEST ST 1,1.304092426,103.7655221
255 TAMPINES ST 21,1.352743287,103.9503836
224 TAMPINES ST 23,1.355384935,103.9534885
352 TAMPINES ST 33,1.354165275,103.9624426
219 LOR 8 TOA PAYOH,1.342764332,103.8558726
525 JURONG WEST ST 52,1.347316362,103.7163296
103 SPOTTISWOODE PK RD,1.274660969,103.8352798
236 BT BATOK EAST AVE 5,1.349336423,103.7559635
859 WOODLANDS ST 83,1.439881884,103.7939668
702 YISHUN AVE 5,1.429815405,103.8294672
507 JURONG WEST ST 52,1.349027089,103.7184299
113 BISHAN ST 12,1.347231851,103.848809
469 JURONG WEST ST 41,1.348494412,103.7212452
531 SERANGOON NTH AVE 4,1.374819362,103.8751253
167 BISHAN ST 13,1.348003411,103.8553957
526B PASIR RIS ST 51,1.367892757,103.9470327
102 GANGSA RD,1.379107628,103.7681538
12 MARINE TER,1.304607086,103.9157399
234 PASIR RIS DR 4,1.373288037,103.96183
537 WOODLANDS DR 16,1.429657857,103.7925829
268C PUNGGOL FIELD,1.403474149,103.8979384
723 WOODLANDS AVE 6,1.445372524,103.7989678
299 YISHUN ST 20,1.43630991,103.834571
487B TAMPINES ST 45,1.360265249,103.9583724
232A SERANGOON AVE 2,1.354254191,103.868543
526 WOODLANDS DR 14,1.432896143,103.7927681
669D JURONG WEST ST 64,1.343430833,103.7032581
800 YISHUN RING RD,1.418725167,103.8321104
568 CHOA CHU KANG ST 52,1.395670287,103.7462828
520 SERANGOON NTH AVE 4,1.372035491,103.8737244
132 CHOA CHU KANG AVE 1,1.381061992,103.750796
12C MARSILING LANE,1.441085877,103.7777812
272C SENGKANG CTRL,1.384273327,103.893821
62 MARINE DR,1.302670233,103.9090404
152 SERANGOON NTH AVE 1,1.369347268,103.872614
606 HOUGANG AVE 4,1.370677344,103.885941
402 PANDAN GDNS,1.320755478,103.7495197
744 PASIR RIS ST 71,1.377469238,103.9352123
60 CIRCUIT RD,1.325552536,103.8865328
443B FERNVALE RD,1.391183805,103.8739461
494D TAMPINES ST 43,1.363800158,103.9534387
194A BT BATOK WEST AVE 6,1.344680501,103.7455139
438 FAJAR RD,1.382776617,103.7702967
147 GANGSA RD,1.376020766,103.76549
653 SENJA LINK,1.386925907,103.7639462
314A ANCHORVALE LINK,1.390963468,103.8891468
860A TAMPINES AVE 5,1.35546108,103.9386503
408A FERNVALE RD,1.38876434,103.8762119
330B ANCHORVALE ST,1.396557709,103.8902405
483 JURONG WEST ST 41,1.347353056,103.7253204
248 BISHAN ST 22,1.361397156,103.8432813
44 JLN BAHAGIA,1.327409379,103.8572312
454 CHOA CHU KANG AVE 4,1.378986387,103.734822
309 YISHUN RING RD,1.432376504,103.8405877
24 HOUGANG AVE 3,1.365512261,103.8920855
316B ANCHORVALE LINK,1.392849379,103.8888208
317 WOODLANDS ST 31,1.431895935,103.7762683
388 BT BATOK WEST AVE 5,1.364850176,103.7521618
648B JURONG WEST ST 61,1.338387692,103.6981926
298 PUNGGOL CTRL,1.402617228,103.9056027
309A ANG MO KIO ST 31,1.365029333,103.8453006
838 JURONG WEST ST 81,1.343849017,103.6935081
213 LOR 8 TOA PAYOH,1.341004936,103.8544125
251 BISHAN ST 22,1.361910207,103.8441706
180A MARSILING RD,1.439043209,103.7781097
433 TAMPINES ST 43,1.359040501,103.9511326
592B MONTREAL LINK,1.450663888,103.8276019
108 PASIR RIS ST 12,1.367478779,103.9570177
679 HOUGANG AVE 8,1.371463501,103.8847446
864 YISHUN AVE 4,1.416672578,103.8392423
184 STIRLING RD,1.295609547,103.8044729
404 PANDAN GDNS,1.319816613,103.7492833
819 TAMPINES ST 81,1.348396484,103.9368087
684A JURONG WEST ST 64,1.343998374,103.7039272
432 JURONG WEST ST 42,1.352563729,103.7235695
170 BOON LAY DR,1.347491868,103.7076582
152 LOR 2 TOA PAYOH,1.334167085,103.8458911
464 JURONG WEST ST 41,1.350300629,103.7223139
288 TAMPINES ST 22,1.348852774,103.9547046
187 BOON LAY AVE,1.345057736,103.7106998
865 JURONG WEST ST 81,1.349817216,103.6954447
321C ANCHORVALE DR,1.390585781,103.8916173
18 MARSILING LANE,1.443417007,103.7778612
107C EDGEFIELD PLAINS,1.396621521,103.9076007
234 BISHAN ST 22,1.358370578,103.8460914
275 TAMPINES ST 22,1.347813037,103.9504093
404 JURONG WEST ST 42,1.353922892,103.7225057
150 RIVERVALE CRES,1.392354298,103.9062606
117 EDGEFIELD PLAINS,1.395787352,103.9066178
1B CANTONMENT RD,1.277799407,103.8414034
233 TAMPINES ST 21,1.356409336,103.9475287
690E WOODLANDS DR 75,1.442165494,103.8080407
487C CHOA CHU KANG AVE 5,1.376512807,103.7391377
365 CLEMENTI AVE 2,1.312299789,103.7699438
816B KEAT HONG LINK,1.376041135,103.74846
232 BAIN ST,1.296853111,103.8533475
114 BT PURMEI RD,1.275071819,103.8258872
112 EDGEFIELD PLAINS,1.396245169,103.9070873
102 CLEMENTI ST 14,1.322285572,103.7692019
318 SERANGOON AVE 2,1.352840462,103.8671648
27 NEW UPP CHANGI RD,1.324124329,103.934921
133 BEDOK NTH AVE 3,1.327562572,103.9357346
261 JURONG EAST ST 24,1.344495689,103.7404011
223 SIMEI ST 4,1.342088992,103.9576471
842 WOODLANDS ST 82,1.443437705,103.7922554
204A COMPASSVALE DR,1.387856247,103.894681
96 MARGARET DR,1.296431313,103.8121221
404 SERANGOON AVE 1,1.347099531,103.8724732
442 CHOA CHU KANG AVE 4,1.380939699,103.7377339
451 CHOA CHU KANG AVE 4,1.380052093,103.7356514
56 STIRLING RD,1.296696151,103.8042695
208 BT BATOK ST 21,1.345903105,103.7488118
776 PASIR RIS ST 71,1.374611175,103.9371758
130 CASHEW RD,1.374011291,103.7712818
14 JLN BT MERAH,1.287861305,103.8076482
502C YISHUN ST 51,1.417323097,103.8415542
783 YISHUN RING RD,1.421839205,103.8327652
124C RIVERVALE DR,1.388096407,103.9027208
208 YISHUN ST 21,1.431022338,103.8376232
725 BEDOK RESERVOIR RD,1.337645866,103.9289908
673C JURONG WEST ST 65,1.344712135,103.7013131
470 CHOA CHU KANG AVE 3,1.378177516,103.7371072
277D COMPASSVALE LINK,1.381833459,103.8939094
630 JURONG WEST ST 65,1.342661828,103.7002088
480 JURONG WEST ST 41,1.34684766,103.7240418
714 JURONG WEST ST 71,1.34312003,103.696675
539 PASIR RIS ST 51,1.36957399,103.9505304
146 RIVERVALE DR,1.390496473,103.9061572
127 HOUGANG AVE 1,1.352917221,103.8856799
828 JURONG WEST ST 81,1.345156894,103.6931141
348A YISHUN AVE 11,1.427353081,103.8412192
221 PENDING RD,1.375372172,103.7734541
543 SERANGOON NTH AVE 3,1.3743934,103.8712632
988A BUANGKOK GREEN,1.379467597,103.8772665
409 PASIR RIS DR 6,1.372917198,103.9542258
552 HOUGANG ST 51,1.378802696,103.8903752
574 HOUGANG ST 51,1.377469903,103.886929
119 LOR 1 TOA PAYOH,1.339109238,103.8446874
545 ANG MO KIO AVE 10,1.373179219,103.8562945
904 JURONG WEST ST 91,1.340227842,103.6859367
147 BT BATOK WEST AVE 6,1.349577518,103.7436013
18 HOUGANG AVE 3,1.363216575,103.8919296
270 YISHUN ST 22,1.437421344,103.8399825
535 BT PANJANG RING RD,1.384418033,103.7633287
463 CHOA CHU KANG AVE 4,1.377178641,103.7354542
467 ANG MO KIO AVE 10,1.365391066,103.8568036
307A ANCHORVALE RD,1.389397564,103.8880427
124A BT MERAH VIEW,1.284887046,103.8227818
161B PUNGGOL CTRL,1.39572273,103.915306
231 SERANGOON AVE 3,1.355017626,103.8683677
46 JLN BT HO SWEE,1.288295797,103.8261447
40 TEBAN GDNS RD,1.321350377,103.7420311
176 ANG MO KIO AVE 4,1.375848226,103.8361572
531 JELAPANG RD,1.385550676,103.7642364
57 JLN MA'MOR,1.328429655,103.8567824
253 BISHAN ST 22,1.362243147,103.8431024
455 JURONG WEST ST 42,1.351065505,103.7185278
124 RIVERVALE DR,1.387619711,103.9021587
664B PUNGGOL DR,1.40006477,103.9178515
249 BT BATOK EAST AVE 5,1.350616557,103.7565642
487 PASIR RIS DR 4,1.374941287,103.96059
10B LOR 7 TOA PAYOH,1.337161364,103.8583536
260C PUNGGOL WAY,1.40524575,103.8964109
848 YISHUN ST 81,1.41607677,103.8355758
272D PUNGGOL WALK,1.402733475,103.9004635
109 TAMPINES ST 11,1.347407807,103.9488118
328 TAH CHING RD,1.336634513,103.7226004
424 CHOA CHU KANG AVE 4,1.381483036,103.740309
230 BISHAN ST 23,1.3579458,103.8454936
307 CLEMENTI AVE 4,1.321415897,103.7671055
535 PASIR RIS DR 1,1.370525854,103.9501901
413A FERNVALE LINK,1.389306806,103.8787293
106 TAMPINES ST 11,1.347539192,103.9476754
296B BT BATOK ST 22,1.343693814,103.7473568
377 CLEMENTI AVE 5,1.31756399,103.7679752
579 PASIR RIS ST 53,1.374425727,103.947356
180 BT BATOK WEST AVE 8,1.345557925,103.742841
248 COMPASSVALE RD,1.392197909,103.8984563
114 BT BATOK WEST AVE 6,1.348836629,103.7460217
642 JURONG WEST ST 61,1.340369897,103.6958398
635 ANG MO KIO AVE 6,1.380768961,103.8423784
18B HOLLAND DR,1.31101769,103.7914519
132 PASIR RIS ST 11,1.366232828,103.9560869
788 WOODLANDS AVE 6,1.443250874,103.8017717
628 HOUGANG AVE 8,1.369561785,103.8805075
312 SEMBAWANG DR,1.444502658,103.8210095
112 ANG MO KIO AVE 4,1.371278651,103.8357666
46 SENG POH RD,1.284003917,103.8315298
326 SERANGOON AVE 3,1.350351985,103.868997
424 HOUGANG AVE 6,1.373765404,103.8934828
34 KIM CHENG ST,1.284899222,103.8315842
401 TAMPINES ST 41,1.357072868,103.9449127
228 SIMEI ST 4,1.342552189,103.9560409
209C COMPASSVALE LANE,1.383993735,103.8991735
501 BISHAN ST 11,1.348416898,103.8490773
207 BOON LAY PL,1.346586103,103.7135684
10 JOO SENG RD,1.334618334,103.880165
227 BT BATOK CTRL,1.348383998,103.7535203
268D COMPASSVALE LINK,1.385079303,103.8958527
81 MACPHERSON LANE,1.332169382,103.8862967
159 YISHUN ST 11,1.432792722,103.8340283
479 JURONG WEST ST 41,1.347202757,103.7245012
321 WOODLANDS ST 32,1.431885537,103.7793232
104 CLEMENTI ST 14,1.322949685,103.7691892
136 BEDOK NTH AVE 3,1.328154988,103.9352208
476A UPP SERANGOON VIEW,1.376760382,103.9040504
476 TAMPINES ST 44,1.361113291,103.9535485
757 WOODLANDS AVE 4,1.446210102,103.7945985
110C PUNGGOL FIELD,1.395397332,103.910034
454 HOUGANG AVE 10,1.378159218,103.8954097
737 JURONG WEST ST 75,1.346746007,103.7011599
431C YISHUN AVE 1,1.420197193,103.8465045
344 CHOA CHU KANG LOOP,1.383282625,103.7451103
53 PIPIT RD,1.323993056,103.8866927
24 TANGLIN HALT RD,1.297677087,103.7996368
756 JURONG WEST ST 74,1.349326757,103.7007218
113 PASIR RIS ST 11,1.368055259,103.9557672
647 JLN TENAGA,1.331709619,103.9057021
102 LENGKONG TIGA,1.325579307,103.9106575
339 TAMPINES ST 33,1.351145691,103.9591245
249 KIM KEAT LINK,1.331315733,103.856657
106 YISHUN RING RD,1.431478614,103.827452
503 SERANGOON NTH AVE 4,1.374001478,103.8765358
102 BEDOK NTH AVE 4,1.333906548,103.9374584
457 HOUGANG AVE 10,1.376974341,103.8959986
513 BEDOK NTH AVE 2,1.33296326,103.9292556
10D BEDOK STH AVE 2,1.321770859,103.9363266
181A BOON LAY DR,1.348490838,103.7080973
337 HOUGANG AVE 7,1.369680219,103.8983372
264 TAMPINES ST 21,1.352804865,103.9511457
532 HOUGANG AVE 6,1.376068365,103.8911253
133 BEDOK RESERVOIR RD,1.332357441,103.911768
203A PUNGGOL FIELD,1.398524282,103.9038627
392 YISHUN AVE 6,1.428697825,103.8492007
155 YISHUN ST 11,1.431886857,103.834256
455 SEGAR RD,1.387291051,103.7708221
818C CHOA CHU KANG AVE 1,1.37672184,103.7481501
623A PUNGGOL CTRL,1.399884825,103.9118964
370 WOODLANDS AVE 1,1.432542705,103.7873877
724 YISHUN ST 71,1.426474819,103.8299159
714 ANG MO KIO AVE 6,1.371096498,103.8462315
396 YISHUN AVE 6,1.428359462,103.8470373
696 HOUGANG ST 61,1.375964495,103.8874236
513 ANG MO KIO AVE 8,1.372736969,103.8501949
90 COMMONWEALTH DR,1.30542326,103.7996746
425 WOODLANDS ST 41,1.427113195,103.7739962
302 UBI AVE 1,1.33002587,103.9009954
785D WOODLANDS RISE,1.445582898,103.8055925
682A WOODLANDS DR 62,1.44031863,103.8032847
348 ANG MO KIO AVE 3,1.36619757,103.8478999
478 SEMBAWANG DR,1.452452221,103.8164885
635 JURONG WEST ST 65,1.342793288,103.698397
515 BEDOK NTH AVE 2,1.331866565,103.9299602
113D MCNAIR RD,1.320148599,103.8597637
293 YISHUN ST 22,1.436114254,103.8376052
663C PUNGGOL DR,1.400365494,103.9176319
201C COMPASSVALE DR,1.387725134,103.8935077
755 PASIR RIS ST 71,1.377470617,103.9337038
111 COMMONWEALTH CRES,1.306352033,103.7984662
405 WOODLANDS ST 41,1.429994562,103.7722614
398 YISHUN RING RD,1.427675631,103.8465235
239 BT PANJANG RING RD,1.380149397,103.7711263
341A SEMBAWANG CL,1.447576365,103.8186098
145 LOR AH SOO,1.351492286,103.8832399
120C RIVERVALE DR,1.385262446,103.904005
59 COMMONWEALTH DR,1.298011246,103.7970907
33 TANGLIN HALT RD,1.296567445,103.7983786
471 SEGAR RD,1.388291646,103.7728948
58 STIRLING RD,1.296191719,103.8045419
840 YISHUN ST 81,1.415715362,103.8334104
301B ANCHORVALE DR,1.389306839,103.8910983
266 TOH GUAN RD,1.341341309,103.7443434
296C COMPASSVALE CRES,1.397311291,103.8997478
202B SENGKANG EAST RD,1.3881275,103.8927429
672A EDGEFIELD PLAINS,1.406414151,103.9126204
743 YISHUN AVE 5,1.429899834,103.833671
117 BT MERAH CTRL,1.28365235,103.8154111
707 JURONG WEST ST 71,1.341783047,103.693952
117 BISHAN ST 12,1.347017421,103.8499867
107 BEDOK RESERVOIR RD,1.329870289,103.9092204
9 JLN RUMAH TINGGI,1.288816153,103.8082053
449 HOUGANG AVE 10,1.378780982,103.8951536
410 COMMONWEALTH AVE WEST,1.311441232,103.769692
420 SERANGOON CTRL,1.349149109,103.875117
48 TEBAN GDNS RD,1.320497729,103.7399677
725 YISHUN ST 71,1.426956151,103.83071
451 ANG MO KIO AVE 10,1.368793142,103.8555278
976 HOUGANG ST 91,1.377218862,103.8802818
255 PASIR RIS ST 21,1.368227454,103.9642038
22 HAVELOCK RD,1.288746037,103.8288242
53 SIMS PL,1.317823747,103.8800776
111 LOR 3 GEYLANG,1.312348005,103.8737478
1 TG PAGAR PLAZA,1.275596198,103.8423932
19 BEDOK STH RD,1.319756647,103.9342743
451 YISHUN RING RD,1.422053752,103.8446752
109 BEDOK RESERVOIR RD,1.329631366,103.9099022
62 JLN MA'MOR,1.328117403,103.8575546
10 HAIG RD,1.314839502,103.8958652
122 MARSILING RISE,1.439166197,103.7796586
146 POTONG PASIR AVE 1,1.331800783,103.8672428
750 JURONG WEST ST 73,1.347937116,103.6991919
209 BT BATOK ST 21,1.34548843,103.748738
527 JURONG WEST ST 52,1.347884172,103.7164174
232 LOR 8 TOA PAYOH,1.337571869,103.8588439
275A JURONG WEST ST 25,1.352412933,103.7022212
186A RIVERVALE DR,1.393009778,103.9056495
988C BUANGKOK GREEN,1.380296863,103.8772664
115 CLEMENTI ST 13,1.323545133,103.7713288
453 HOUGANG AVE 10,1.378478046,103.8958917
718 JURONG WEST ST 71,1.343697388,103.6975705
202 COMPASSVALE DR,1.38860813,103.89326
316 TAMPINES ST 33,1.351537998,103.9575795
328 YISHUN RING RD,1.429779542,103.8430569
303 YISHUN CTRL,1.430268639,103.8400672
668D JURONG WEST ST 64,1.341257872,103.7030009
221 JURONG EAST ST 21,1.34084175,103.7369183
322 WOODLANDS ST 32,1.431515854,103.7788816
987B BUANGKOK GREEN,1.379392247,103.8782839
208 BOON LAY PL,1.347003674,103.7142164
174 LOR 1 TOA PAYOH,1.330672097,103.8419179
740 BEDOK RESERVOIR RD,1.338025856,103.922835
1 BEDOK STH AVE 1,1.320852087,103.9337211
635 VEERASAMY RD,1.306588502,103.8552187
215A COMPASSVALE DR,1.389478683,103.8932788
510 SERANGOON NTH AVE 4,1.370594509,103.875782
72 GEYLANG BAHRU,1.321583216,103.8714196
45 LENGKOK BAHRU,1.286742975,103.8126313
18D CIRCUIT RD,1.329404348,103.889197
588C MONTREAL DR,1.450484225,103.8245785
59 MARINE TER,1.305859665,103.9147218
349 TAMPINES ST 33,1.353416898,103.9630118
203 CHOA CHU KANG AVE 1,1.381337282,103.7494497
183C BOON LAY AVE,1.348656806,103.7090974
225 JURONG EAST ST 21,1.34178121,103.7372515
128 SIMEI ST 1,1.346900721,103.9548558
154 GANGSA RD,1.374816801,103.7651093
162B RIVERVALE CRES,1.390359677,103.9080766
403 FAJAR RD,1.3811297,103.7677496
417 PASIR RIS DR 6,1.371939625,103.9554517
197C BOON LAY DR,1.343403195,103.7136861
957 HOUGANG ST 91,1.376632709,103.8793837
710 TAMPINES ST 71,1.358924314,103.9376447
648D JURONG WEST ST 61,1.33943037,103.697684
454 FAJAR RD,1.384502431,103.7715374
461 HOUGANG AVE 10,1.372736224,103.8946293
158 ANG MO KIO AVE 4,1.374780587,103.8389976
428 ANG MO KIO AVE 3,1.368939065,103.8544123
314B ANCHORVALE LINK,1.391049862,103.8888467
807C CHOA CHU KANG AVE 1,1.376156002,103.7458213
508 JURONG WEST ST 52,1.348727181,103.7187154
517 SERANGOON NTH AVE 4,1.371323428,103.8740856
