address,LATITUDE,LONGITUDE
100 AM,1.27468281482263,103.843488359469
313@Somerset,1.30101436404056,103.838360664485
321 Clementi,1.31200212030821,103.764986676365
888 Plaza,1.43712301500434,103.795314383823
Admiralty Place,1.43963261801972,103.802121646793
Alexandra Central,1.28728320930592,103.805283367958
Alexandra Retail Centre,1.27414893629254,103.801399416665
AMK Hub,1.36938922690344,103.84847796594
Anchorpoint,1.28893477974497,103.805607779399
Aperia,1.31086672816827,103.863929573292
Balestier Hill Shopping Centre,1.32574173430776,103.843034351562
Beauty World Centre,1.34241264188642,103.776539385406
Beauty World Plaza,1.34180018619223,103.776259359854
Bedok Mall,1.32473632784728,103.929256259998
Bedok Point,1.33054849915481,103.947778439395
Boon Lay Shopping Centre,1.34633552457315,103.712430373455
Broadway Plaza,1.37193729131781,103.845949444498
Buangkok Square,1.38433426615655,103.881623070164
Bugis Cube,1.2981408343975,103.855635339249
Bugis Junction,1.30011789343093,103.856191571652
Bugis+,1.30095171530648,103.855172625542
Bukit Panjang Plaza,1.37992045176243,103.764357180314
Bukit Timah Plaza,1.33875930729064,103.778600077834
Canberra Plaza,1.44349544527985,103.830345369213
Capitol Piazza,1.29307884763132,103.851261982149
Cathay Cineleisure Orchard,1.30152101873533,103.836429655016
Causeway Point,1.4360700650803,103.785981524253
Century Square,1.35236829566862,103.943812302253
Changi City Point,1.33403637902708,103.962917615531
City Gate,1.30231590504573,103.862331661034
City Plaza,1.3147868971977,103.893472115119
City Square Mall,1.31142103107683,103.856624019991
CityLink Mall,1.2927777312893,103.854173501417
Compass One,1.39205314156706,103.89507054384
Djitsun Mall,1.32611970329469,103.929554495615
Djitsun Mall Bedok,1.32611970329469,103.929554495615
Downtown East,1.37691412455433,103.955036748549
Duo,1.29953434891664,103.85840168774
Eastpoint Mall,1.34270592355576,103.953024618234
Elias Mall,1.37860239771677,103.941978174681
Fairprice Hub,1.32561767765205,103.678409741897
Fajar Shopping Centre,1.38400582466296,103.771029603101
Far East Plaza,1.30717698071189,103.833792932243
Funan,1.29134759697794,103.849989790085
Gek Poh Shopping Centre,1.34874357136408,103.697732091001
GR.iD,1.30010826723486,103.849264127911
Grantral Mall,1.31427043922294,103.765147487482
Great World City,1.29342272650003,103.832022146655
Greenridge Shopping Centre,1.38540569283271,103.766228468185
Greenwich V,1.38739539397015,103.869135978173
HarbourFront Centre,1.26396991176004,103.820243325181
HDB Hub,1.33205485190481,103.848507643079
Heartland Mall,1.35954177325561,103.885167372726
Hillion Mall,1.37843100827586,103.762842789877
HillV2,1.36267450828024,103.76417292006
Holland Piazza,1.31067976097165,103.795260908624
Holland Road Shopping Centre,1.31027747574118,103.795371163103
Hougang 1,1.37571530699875,103.879472337592
Hougang Green Shopping Mall,1.3792452907016,103.887832017102
Hougang Mall,1.37249493810003,103.893775562605
i12 Katong,1.30522306203042,103.905043928938
IMM,1.33487526118006,103.746894773008
ION Orchard,1.30397974144505,103.832032328465
JCube,1.33332312550425,103.740187071348
Jem,1.33329334473462,103.743278742341
Jewel Changi Airport,1.3603410066102,103.98907755021
Jubilee Square,1.37178558575829,103.847837565378
Junction 10,1.38033681049385,103.760167883439
Junction 8,1.3504812534505,103.848760473211
Junction 8,1.3504812534505,103.848760473211
Jurong Point,1.33945271661445,103.70668501289
Kallang Wave Mall,1.30307515150401,103.873149707591
Katong Shopping Centre,1.3040973115095,103.901515916971
Katong Square,1.30513510179213,103.904307160288
Keat Hong Shopping Centre,1.37736607441394,103.744393648768
KINEX,1.31461849889242,103.894738004768
Knightsbridge,1.3029831225958,103.836283923443
Leisure Park Kallang,1.30230108405227,103.876473975883
Liat Towers,1.30508722710852,103.830722581168
Limbang Shopping Centre,1.39222033136152,103.743611063324
Lot One,1.38497459672379,103.745011766388
Loyang Point,1.36645364010349,103.964598499523
Lucky Plaza,1.30450604646634,103.833962339817
Marina Bay Link Mall,1.28023825446086,103.853369662547
Marina Bay Sands,1.28345419690844,103.860809048956
Marina Square,1.29185533273026,103.85857808906
Marsiling Mall,1.43354318137534,103.77988189197
Midpoint Orchard,1.30178778502846,103.838659766022
Millenia Walk,1.29260544462492,103.859724944443
Mustafa Centre,1.31011213190394,103.855290873926
myVillage At Serangoon Garden,1.36511490572797,103.865159501442
NEX,1.35076935257845,103.872296143862
Ngee Ann City,1.30224168528687,103.835181912297
Northpoint City,1.42969848626288,103.835776491468
Northshore Plaza,1.41676127156324,103.902074379502
Oasis Terraces,1.40278015725693,103.913215101343
Orchard Central,1.30083890839245,103.839434733899
Orchard Gateway,1.30044325279546,103.839442780042
Orchard Plaza,1.30125729409965,103.841150144584
Our Tampines Hub,1.35313359828812,103.940408135311
Palais Renaissance,1.30665484543191,103.829588045188
Parkway Parade,1.30106975506311,103.905279491524
Paya Lebar Quarter,1.31617383739365,103.893138984874
Paya Lebar Square,1.31881487007651,103.892580778514
People's Park Centre,1.28577009981805,103.843980122838
People's Park Complex,1.28413397178419,103.842519972666
Pioneer Mall,1.34169239214292,103.697174842118
Plaza Singapura,1.30074770963916,103.845047573431
Punggol Plaza,1.39423719717117,103.913047323223
Queensway Shopping Centre,1.2876179255874,103.803391140455
Raffles City,1.29389357863312,103.853119904656
Raffles Holland V,1.31056351530083,103.796107173318
Rail Mall,1.35976061966283,103.767585300058
Rivervale Mall,1.39219777838449,103.904471600025
Rivervale Plaza,1.38533736107771,103.901841044122
Rochester Mall,1.30540765569962,103.788446680148
Roxy Square,1.30432599904899,103.904051120306
Scotts Square,1.30579942993543,103.833074706219
Sembawang Shopping Centre,1.44182470675733,103.824845207237
Shaw Centre,1.3061133465565,103.831970581812
Shaw House,1.30580981580562,103.831507365654
Sim Lim Square,1.3030242605718,103.853037814067
Singapore Shopping Centre,1.29815265394505,103.844111318107
Singpost Centre,1.31899666903663,103.894894915962
Square 2,1.32070510956845,103.844160709661
Sun Plaza,1.44819535371132,103.819502127155
Sunshine Place,1.37789727599928,103.739015486021
Sunshine Plaza,1.30039433798822,103.850892323466
Suntec City,1.29546675589675,103.858585026016
Taman Jurong Shopping Centre,1.33484487416514,103.720462024278
Tampines 1,1.35270160272274,103.942903567808
Tampines Mall,1.35252737278519,103.944698751072
Tanglin Mall,1.30484344196915,103.823852794772
Tanjong Pagar Centre,1.27658360696843,103.845936303594
Teck Whye Shopping Centre,1.38004752975397,103.752483841199
Tekka Centre,1.30617773048079,103.850609985486
The Adelphi,1.29118503658447,103.851184338699
The Central,1.28883856248204,103.846558024744
The Centrepoint,1.30197836876806,103.839759023144
The Clementi Mall,1.31489619639366,103.764423054189
The Grandstand,1.33662750219377,103.792928821275
The Paragon,1.30387230879994,103.835857545469
The Poiz,1.33149708073624,103.86821402533
The Seletar Mall,1.39147015374628,103.876125507257
The Shoppes at Marina Bay Sands,1.28423496027027,103.858982282698
The South Beach,1.29498804392056,103.856276242094
The Star Vista,1.30697044038323,103.788420274115
Thomson Plaza,1.35466902496424,103.830919782333
Tiong Bahru Plaza,1.28645889472825,103.827015256194
United Square,1.31719450988559,103.843611443038
Upper Serangoon Shopping Centre,1.35348082277147,103.878828134896
Velocity@Novena Square,1.31929542501907,103.844191353077
Vista Point,1.43089714603015,103.793927429476
Vivo City,1.26427054261311,103.822476140813
VivoCity,1.26429316783973,103.82230469365
Waterway Point,1.40648462132006,103.902105680785
West Coast Plaza,1.30369748971099,103.766131294678
West Mall,1.35001920979845,103.749244800677
Westgate,1.33415767556867,103.742766484424
Wheelock Place,1.30467628730252,103.830642027577
White Sands,1.37244981663527,103.949715694737
Wisma Atria,1.30370477426147,103.833205752808
Wisteria Mall,1.41795288501536,103.841268831617
Woodlands Civic Centre,1.43501829566013,103.786930895956
Woodlands Mart,1.44562290720221,103.798140993891
Woodlands North Plaza,1.44275334327795,103.790548015512
Yew Tee Point,1.39705741516141,103.746662121143
Yew Tee Square,1.39836942665376,103.747188486453
Zhongshan Mall,1.32694504456951,103.846554377679
